[{"GUID":"a2819245-6392-4496-af36-cfb94a376859","RegionGUID":"6a24ca2d-997d-4ee4-bd61-ce27ed2c0866","Name":"A6 Golfklubb","MapLat":"57.7622718","MapLng":"14.2134960","GreenOpenType":1},{"GUID":"1285a58f-cae3-4654-84cf-4f687febef3d","RegionGUID":"582bbfae-70b9-46ff-aed4-777c67926a3e","Name":"Abbekås Golfklubb","MapLat":"55.4075813","MapLng":"13.6061379","GreenOpenType":1},{"GUID":"ac511741-8d6a-4c25-a772-392b7a538d09","RegionGUID":"b9984d7d-2dc1-40e7-9f3b-dc5b63108a73","Name":"AIK Golfklubb","MapLat":"59.3972163","MapLng":"17.8146586","GreenOpenType":-1},{"GUID":"c990d617-f27d-471c-be5e-a209dc2752cf","RegionGUID":"534d22b7-4904-472a-b5db-e7da7e8f41ba","Name":"Albatross Golfklubb","MapLat":"57.7778297","MapLng":"11.9556303","GreenOpenType":1},{"GUID":"5c9ae977-25c2-4744-a0bd-e94ad9f12b2f","RegionGUID":"534d22b7-4904-472a-b5db-e7da7e8f41ba","Name":"Ale Golfklubb","MapLat":"58.0000019","MapLng":"12.1783640","GreenOpenType":1},{"GUID":"519ffd38-fe32-419c-aa89-a75f81af8e0c","RegionGUID":"11502f51-c4c7-425c-a861-987ace64ea8b","Name":"Alfta-Edsbyns Golfklubb","MapLat":"61.32641581275487","MapLng":"16.03486198740234","GreenOpenType":1},{"GUID":"9d55b54e-0e11-4189-803a-7a21f2354c18","RegionGUID":"52f851b7-0891-43e2-9e1a-3b347514159e","Name":"Alingsås Golfklubb","MapLat":"57.8807536","MapLng":"12.5564683","GreenOpenType":1},{"GUID":"84f39b95-4237-47c6-bbca-ea476e8417f5","RegionGUID":"582bbfae-70b9-46ff-aed4-777c67926a3e","Name":"Allerum Golfklubb","MapLat":"56.1324374","MapLng":"12.7146548","GreenOpenType":1},{"GUID":"63c4e2d0-b258-4d6c-9ed1-5e98174ef5b1","RegionGUID":"27b4c76b-4980-4ebe-9fbc-95133d05d777","Name":"Allmags Golfklubb","MapLat":"58.2106339","MapLng":"11.8153506","GreenOpenType":1},{"GUID":"49d5a601-04b6-423d-a395-d55e85c73448","RegionGUID":"6a24ca2d-997d-4ee4-bd61-ce27ed2c0866","Name":"Alvesta Golfklubb","MapLat":"56.968165990329425","MapLng":"14.570298781970212","GreenOpenType":1},{"GUID":"bfebef20-7f1c-4196-8e64-ff03540e3fdb","RegionGUID":"582bbfae-70b9-46ff-aed4-777c67926a3e","Name":"Araslövs Golfklubb","MapLat":"56.0653383","MapLng":"14.0852491","GreenOpenType":1},{"GUID":"d0de8732-b87d-4fe5-9749-6eeb075072cc","RegionGUID":"c677a7df-445e-4740-a88c-de3d818b577f","Name":"Arboga Golfklubb","MapLat":"59.370276837441416","MapLng":"15.75934724653321","GreenOpenType":1},{"GUID":"b135e633-8053-4268-9fa5-69a58f89497c","RegionGUID":"8d855241-afa9-4df5-aea7-8a0d7d47a573","Name":"Arlandastad Golfklubb","MapLat":"59.5958251","MapLng":"17.8867153","GreenOpenType":1},{"GUID":"71d046c5-1016-4b88-9347-eade7d50d2b7","RegionGUID":"b9984d7d-2dc1-40e7-9f3b-dc5b63108a73","Name":"Arninge Golfklubb","MapLat":"59.4861989","MapLng":"18.1244187","GreenOpenType":1},{"GUID":"fdf61dfe-f73d-4cdd-85d7-6701eb26ec64","RegionGUID":"ae8331f0-bbf2-48c6-8dc0-cd6144da70dc","Name":"Arvidsjaurs Golfklubb","MapLat":"65.5817394748174","MapLng":"19.208849569250485","GreenOpenType":1},{"GUID":"df10b97e-a31f-4d40-9884-f897e3afdd13","RegionGUID":"021a3c4d-08b2-4575-9c52-0b9f326b4167","Name":"Arvika Golfklubb","MapLat":"59.649341","MapLng":"12.781402","GreenOpenType":1},{"GUID":"985e4fd3-cd28-485c-a9af-335a8f7afd32","RegionGUID":"e0ad8cfd-8269-405c-a18e-082a4025da21","Name":"Askersunds Golfklubb","MapLat":"58.8556829","MapLng":"15.0002683","GreenOpenType":1},{"GUID":"ba8ebdae-baee-4995-9bcd-3ad0e6b2fa8e","RegionGUID":"71034d1a-4ece-4696-a164-0c39e7d52241","Name":"Avesta Golfklubb","MapLat":"60.1485326","MapLng":"16.2099281","GreenOpenType":1},{"GUID":"6d2df9ef-31d2-43e3-b88c-3d6375b12608","RegionGUID":"534d22b7-4904-472a-b5db-e7da7e8f41ba","Name":"Backa Säteri IF","MapLat":"57.8849","MapLng":"12.0521606","GreenOpenType":1},{"GUID":"045d699c-4713-49cc-b36a-4a23418012de","RegionGUID":"582bbfae-70b9-46ff-aed4-777c67926a3e","Name":"Barsebäck Golf & Country Club","MapLat":"55.7918856","MapLng":"12.9417293","GreenOpenType":1},{"GUID":"5350ca06-4be3-4ef8-a4bc-7f1794442c65","RegionGUID":"582bbfae-70b9-46ff-aed4-777c67926a3e","Name":"Bedinge Golfklubb","MapLat":"55.365251734771505","MapLng":"13.430373769311513","GreenOpenType":1},{"GUID":"72290d5e-b809-4cbf-89e3-38f831b482e6","RegionGUID":"021a3c4d-08b2-4575-9c52-0b9f326b4167","Name":"Billeruds Golfklubb","MapLat":"59.249888524811745","MapLng":"13.009052404540999","GreenOpenType":1},{"GUID":"9ab9671b-0fcf-4b52-905f-9f8c748ad05f","RegionGUID":"52f851b7-0891-43e2-9e1a-3b347514159e","Name":"Billingens Golfklubb","MapLat":"58.4685386","MapLng":"13.6858711","GreenOpenType":1},{"GUID":"284268ee-9ed0-4d58-a63d-19f09cf9d5eb","RegionGUID":"6a24ca2d-997d-4ee4-bd61-ce27ed2c0866","Name":"Binga Golf","MapLat":"56.6358232082911","MapLng":"16.222959932788097","GreenOpenType":1},{"GUID":"cad2fe40-92f6-4237-92b0-3e6394b337a8","RegionGUID":"ae8331f0-bbf2-48c6-8dc0-cd6144da70dc","Name":"Bjurholms Golfklubb","MapLat":"63.96262","MapLng":"19.20599","GreenOpenType":1},{"GUID":"1a870f73-0810-4283-8153-4a7b8c9ad615","RegionGUID":"582bbfae-70b9-46ff-aed4-777c67926a3e","Name":"Bjäre Golfklubb","MapLat":"56.4041988","MapLng":"12.7730475","GreenOpenType":1},{"GUID":"6b1b6524-ab53-4d3b-a028-bae0ea0bca79","RegionGUID":"582bbfae-70b9-46ff-aed4-777c67926a3e","Name":"Björkenäs Golfklubb","MapLat":"55.7689922","MapLng":"13.0159987","GreenOpenType":1},{"GUID":"564d8559-63d0-4621-a2fa-afa584bfd718","RegionGUID":"b9984d7d-2dc1-40e7-9f3b-dc5b63108a73","Name":"Björkhagens Golfklubb","MapLat":"59.28422257189562","MapLng":"18.14497991716309","GreenOpenType":1},{"GUID":"6970714b-2f8c-4f94-841d-40e926040dbc","RegionGUID":"b9984d7d-2dc1-40e7-9f3b-dc5b63108a73","Name":"Björklidens Golfklubb","MapLat":"59.34801581585541","MapLng":"17.940373420715332","GreenOpenType":0},{"GUID":"71de9b27-5fac-4bdf-b30a-7f461b188fbc","RegionGUID":"0023d53d-b3ce-458b-a88b-5baf111ec7cd","Name":"Björnhults Golfklubb","MapLat":"56.928603","MapLng":"12.431459","GreenOpenType":1},{"GUID":"1b34add9-1c98-4ac8-969b-3fb2d041323a","RegionGUID":"941574a5-3109-455b-90f8-ee3eede5dd85","Name":"Boa Golfklubb Olofström","MapLat":"56.2143595","MapLng":"14.6182169","GreenOpenType":1},{"GUID":"17fcd24f-eea5-41d4-a1db-dabb7dff5b00","RegionGUID":"ae8331f0-bbf2-48c6-8dc0-cd6144da70dc","Name":"Bodens Golfklubb","MapLat":"65.75073525130172","MapLng":"21.75799752698366","GreenOpenType":1},{"GUID":"00cb00c4-5f47-4298-84f6-886016bf964c","RegionGUID":"582bbfae-70b9-46ff-aed4-777c67926a3e","Name":"Bokskogens Golfklubb","MapLat":"55.5511657","MapLng":"13.2280286","GreenOpenType":1},{"GUID":"beed4df6-8ea4-45be-b2d1-f7b535705c61","RegionGUID":"ae8331f0-bbf2-48c6-8dc0-cd6144da70dc","Name":"Bolidens Golfklubb","MapLat":"64.878059","MapLng":"20.236055","GreenOpenType":1},{"GUID":"363e461b-c89a-49a9-a93d-72786dda35ed","RegionGUID":"11502f51-c4c7-425c-a861-987ace64ea8b","Name":"Bollnäs Golfklubb","MapLat":"61.2579033","MapLng":"16.5375006","GreenOpenType":1},{"GUID":"8b668e01-5269-4b8c-9703-437559446dfa","RegionGUID":"52f851b7-0891-43e2-9e1a-3b347514159e","Name":"Borås Golfklubb","MapLat":"57.6690230","MapLng":"12.9389243","GreenOpenType":1},{"GUID":"c3060ce4-15f3-4d0e-8af6-ceb1d81e2b01","RegionGUID":"582bbfae-70b9-46ff-aed4-777c67926a3e","Name":"Bosjökloster Golfklubb","MapLat":"55.8787758","MapLng":"13.5217625","GreenOpenType":1},{"GUID":"4fb14a3a-2135-4ae8-a302-0f7a38c93567","RegionGUID":"b9984d7d-2dc1-40e7-9f3b-dc5b63108a73","Name":"Botkyrka Golfklubb","MapLat":"59.1570343","MapLng":"17.8210234","GreenOpenType":1},{"GUID":"eda86e10-af96-4f7e-8853-298f87eba693","RegionGUID":"27b4c76b-4980-4ebe-9fbc-95133d05d777","Name":"Brastad Golfklubb","MapLat":"58.41500460661447","MapLng":"11.5347236611328","GreenOpenType":1},{"GUID":"fbbebc46-2204-4647-a6ac-19fc2d0b2ebf","RegionGUID":"52f851b7-0891-43e2-9e1a-3b347514159e","Name":"Bredareds Golfklubb","MapLat":"57.815607","MapLng":"12.909107","GreenOpenType":1},{"GUID":"944fb43c-2a79-4d59-8d32-a0f24681b3d5","RegionGUID":"52f851b7-0891-43e2-9e1a-3b347514159e","Name":"Brevikens Golfklubb","MapLat":"58.4440683","MapLng":"14.3977067","GreenOpenType":1},{"GUID":"27735a17-ae7d-4b63-8d1a-635da5311de4","RegionGUID":"b9984d7d-2dc1-40e7-9f3b-dc5b63108a73","Name":"Bro Hof Slott Golf Club","MapLat":"59.494124239219346","MapLng":"17.624014761718758","GreenOpenType":1},{"GUID":"c911d25c-9982-4a43-8626-0bb859bbc740","RegionGUID":"b9984d7d-2dc1-40e7-9f3b-dc5b63108a73","Name":"Bro-Bålsta Golfklubb","MapLat":"59.5199551","MapLng":"17.5963392","GreenOpenType":1},{"GUID":"e99802b2-74b4-4eab-9f9f-5944f4603013","RegionGUID":"021a3c4d-08b2-4575-9c52-0b9f326b4167","Name":"Bryngfjordens Golfklubb","MapLat":"59.4231180","MapLng":"13.4666749","GreenOpenType":-1},{"GUID":"eabfec9a-87bd-4902-8c19-782626b4f39e","RegionGUID":"27d0c2e5-3ca5-4f10-be47-860547b99396","Name":"Bryttsätter Golfklubb","MapLat":"58.4707727","MapLng":"16.0654521","GreenOpenType":1},{"GUID":"02aee092-358a-4860-8fcb-8088b1e35b05","RegionGUID":"27d0c2e5-3ca5-4f10-be47-860547b99396","Name":"Bråvikens Golfklubb","MapLat":"58.60632836865575","MapLng":"16.323854644970694","GreenOpenType":1},{"GUID":"73b7f301-462e-4c30-aedd-38788a604f88","RegionGUID":"8d855241-afa9-4df5-aea7-8a0d7d47a573","Name":"Burviks Golfklubb","MapLat":"59.905780","MapLng":"18.381586","GreenOpenType":1},{"GUID":"8cd9f21d-9fab-4798-9660-bc01969a5b38","RegionGUID":"6a24ca2d-997d-4ee4-bd61-ce27ed2c0866","Name":"Byxelkroks Golfklubb","MapLat":"57.310726","MapLng":"16.995506","GreenOpenType":1},{"GUID":"fb23a280-4107-41f7-b00a-142f253d409b","RegionGUID":"582bbfae-70b9-46ff-aed4-777c67926a3e","Name":"Båstad Golfklubb","MapLat":"56.4297194","MapLng":"12.7904255","GreenOpenType":1},{"GUID":"1cb8311a-c8e1-4690-b4fb-e3760ae259a0","RegionGUID":"6a24ca2d-997d-4ee4-bd61-ce27ed2c0866","Name":"Böda Sands Golfklubb","MapLat":"57.27434588778365","MapLng":"17.055698529760733","GreenOpenType":1},{"GUID":"46ffbe34-d3e6-4233-972c-0ba4da424525","RegionGUID":"941574a5-3109-455b-90f8-ee3eede5dd85","Name":"Carlskrona Golfklubb","MapLat":"56.156570","MapLng":"15.452271","GreenOpenType":1},{"GUID":"9c0e75f1-0f2e-4b75-961d-608841060bdf","RegionGUID":"534d22b7-4904-472a-b5db-e7da7e8f41ba","Name":"Chalmers Golfklubb","MapLat":"57.6906116","MapLng":"12.2700787","GreenOpenType":1},{"GUID":"664ea941-1a35-4af3-b533-20ac2cdfa60d","RegionGUID":"b9984d7d-2dc1-40e7-9f3b-dc5b63108a73","Name":"Cloud Golf Club","MapLat":"59.5501817","MapLng":"18.0377206","GreenOpenType":-1},{"GUID":"a180befb-ced5-46a1-bd47-29e0159bbbe3","RegionGUID":"27b4c76b-4980-4ebe-9fbc-95133d05d777","Name":"Dagsholm Golfklubb","MapLat":"58.518761","MapLng":"11.975011","GreenOpenType":1},{"GUID":"c3b6c72b-5a01-4508-ba4e-96a8482fff01","RegionGUID":"71034d1a-4ece-4696-a164-0c39e7d52241","Name":"Dalsjö Golfklubb","MapLat":"60.4816193","MapLng":"15.5214506","GreenOpenType":1},{"GUID":"d73d94f1-75c1-48cf-a190-5303e4df7e50","RegionGUID":"b9984d7d-2dc1-40e7-9f3b-dc5b63108a73","Name":"Danderyds Golfklubb","MapLat":"59.4145387","MapLng":"18.0240961","GreenOpenType":1},{"GUID":"af97cbcf-0d55-4098-8ee9-3a70d5bf2bc9","RegionGUID":"582bbfae-70b9-46ff-aed4-777c67926a3e","Name":"Degeberga-Widtsköfle Golfklubb","MapLat":"55.8249166507616","MapLng":"14.123262535351575","GreenOpenType":1},{"GUID":"3db521c4-0a45-4129-9bca-312b89f18c07","RegionGUID":"e0ad8cfd-8269-405c-a18e-082a4025da21","Name":"Degerfors Golf AB","MapLat":"59.2541897","MapLng":"14.4523011","GreenOpenType":1},{"GUID":"7819f975-130a-4338-b85f-e2610b15cf78","RegionGUID":"534d22b7-4904-472a-b5db-e7da7e8f41ba","Name":"Delsjö Golfklubb","MapLat":"57.68841596073564","MapLng":"12.020610285644548","GreenOpenType":1},{"GUID":"27bf54a0-f59f-4cd8-b4b1-6780452cdad1","RegionGUID":"b9984d7d-2dc1-40e7-9f3b-dc5b63108a73","Name":"Djurgårdens Golfklubb","MapLat":"59.54762172529439","MapLng":"18.039790352728254","GreenOpenType":-1},{"GUID":"1000bc60-4306-4de7-b72a-1c268898c41f","RegionGUID":"b9984d7d-2dc1-40e7-9f3b-dc5b63108a73","Name":"Djursholms Golfklubb","MapLat":"59.4141819","MapLng":"18.0803280","GreenOpenType":1},{"GUID":"0274b278-dfa8-4279-a199-03659568b694","RegionGUID":"27b4c76b-4980-4ebe-9fbc-95133d05d777","Name":"Dynekilens Golfklubb","MapLat":"59.007556","MapLng":"11.243906","GreenOpenType":1},{"GUID":"00934968-1123-4f97-bfa3-8ebbb4feb0b2","RegionGUID":"021a3c4d-08b2-4575-9c52-0b9f326b4167","Name":"Eda Golfklubb","MapLat":"59.785596","MapLng":"12.291217","GreenOpenType":2},{"GUID":"3b486088-5125-4e27-9304-782072fc1aa9","RegionGUID":"52f851b7-0891-43e2-9e1a-3b347514159e","Name":"Ekarnas Golfklubb","MapLat":"58.3359598","MapLng":"12.6663685","GreenOpenType":1},{"GUID":"5e808cd8-7b96-4c12-b274-969e535d4153","RegionGUID":"6a24ca2d-997d-4ee4-bd61-ce27ed2c0866","Name":"Ekerum Golfklubb","MapLat":"56.7849712","MapLng":"16.5778534","GreenOpenType":1},{"GUID":"02f07173-e1dd-423d-9533-f32b892794b9","RegionGUID":"b9984d7d-2dc1-40e7-9f3b-dc5b63108a73","Name":"Ekholmsnäs Golf","MapLat":"59.36189932114926","MapLng":"18.210253143310545","GreenOpenType":-1},{"GUID":"2819ac50-0ea8-4b12-bf38-8c89066c20c2","RegionGUID":"6a24ca2d-997d-4ee4-bd61-ce27ed2c0866","Name":"Eksjö Golfklubb","MapLat":"57.644082324954105","MapLng":"14.900226360001852","GreenOpenType":1},{"GUID":"9d793385-55d6-47c7-8b3d-59d9e7c88c08","RegionGUID":"582bbfae-70b9-46ff-aed4-777c67926a3e","Name":"Elisefarm Golf Club","MapLat":"55.82838071008056","MapLng":"13.550658619763167","GreenOpenType":1},{"GUID":"50959d56-88bf-4235-a300-b530b6eca936","RegionGUID":"6a24ca2d-997d-4ee4-bd61-ce27ed2c0866","Name":"Emmaboda Golfklubb","MapLat":"56.526956556342235","MapLng":"15.590104879345702","GreenOpenType":1},{"GUID":"ce437e34-96d6-48e4-875c-2aa758440b8a","RegionGUID":"8d855241-afa9-4df5-aea7-8a0d7d47a573","Name":"Enköpings Golfklubb","MapLat":"59.63506886113759","MapLng":"17.13157014692383","GreenOpenType":1},{"GUID":"7d89179d-989f-40b3-b7ad-9783bbaacc76","RegionGUID":"555162c8-f1a6-477d-9a3f-a89378fcda21","Name":"Eskilstuna Golfklubb","MapLat":"59.36966013272569","MapLng":"16.55261717666014","GreenOpenType":1},{"GUID":"5355b53a-ffeb-4207-a7ea-8898fa0245d9","RegionGUID":"582bbfae-70b9-46ff-aed4-777c67926a3e","Name":"Eslövs Golfklubb","MapLat":"55.814240347577666","MapLng":"13.308583068847657","GreenOpenType":1},{"GUID":"cafd8762-bc4b-41bc-878c-c00316446d23","RegionGUID":"0138fd90-d2e6-40b9-b38d-d83d506293ea","Name":"Estländska klubbar","MapLat":null,"MapLng":null,"GreenOpenType":-1},{"GUID":"c830f6f6-6ed8-40a0-ac65-205dd1bc443b","RegionGUID":"c677a7df-445e-4740-a88c-de3d818b577f","Name":"Fagersta Golfklubb","MapLat":"59.9748825","MapLng":"15.7472823","GreenOpenType":1},{"GUID":"ec4a6985-ce97-4a99-ad4d-5e7c1269a8d4","RegionGUID":"0023d53d-b3ce-458b-a88b-5baf111ec7cd","Name":"Falkenbergs Golfklubb","MapLat":"56.8897565","MapLng":"12.5698750","GreenOpenType":1},{"GUID":"4bb8cba3-46da-4cce-8525-f4ad5e01cfd3","RegionGUID":"52f851b7-0891-43e2-9e1a-3b347514159e","Name":"Falköpings Golfklubb","MapLat":"58.21728934515597","MapLng":"13.630766677856444","GreenOpenType":1},{"GUID":"8f70ca13-65db-4164-8dad-73dc0470e9f9","RegionGUID":"582bbfae-70b9-46ff-aed4-777c67926a3e","Name":"Falsterbo Golfklubb","MapLat":"55.3823866","MapLng":"12.8208739","GreenOpenType":-1},{"GUID":"5421607d-b514-45cf-8329-ec1b583bd891","RegionGUID":"71034d1a-4ece-4696-a164-0c39e7d52241","Name":"Falun-Borlänge Golfklubb","MapLat":"60.5482153","MapLng":"15.5134837","GreenOpenType":1},{"GUID":"63433d9c-c234-4117-9310-021dead7b3be","RegionGUID":"6a24ca2d-997d-4ee4-bd61-ce27ed2c0866","Name":"Figeholm Golf & Country Club","MapLat":"57.379173","MapLng":"16.581368","GreenOpenType":1},{"GUID":"b7e3a475-a32d-4123-ab1b-63a5fa707c9d","RegionGUID":"27d0c2e5-3ca5-4f10-be47-860547b99396","Name":"Finspångs Golfklubb","MapLat":"58.6953427","MapLng":"15.8248630","GreenOpenType":1},{"GUID":"d444516c-7c8d-4f24-b8a5-74fcc56a414e","RegionGUID":"27b4c76b-4980-4ebe-9fbc-95133d05d777","Name":"Fjällbacka Golfklubb","MapLat":"58.616229","MapLng":"11.289546","GreenOpenType":1},{"GUID":"506da6ca-58b3-4499-bd0d-fde0865e1624","RegionGUID":"27d0c2e5-3ca5-4f10-be47-860547b99396","Name":"Flemminge Golfklubb","MapLat":"58.193052060846455","MapLng":"15.031907544458013","GreenOpenType":1},{"GUID":"fddde50c-8615-47bf-9277-10780c52c4c2","RegionGUID":"555162c8-f1a6-477d-9a3f-a89378fcda21","Name":"Flens Golfklubb","MapLat":"59.02816675617102","MapLng":"16.59960968833009","GreenOpenType":1},{"GUID":"b481e34b-b648-46be-94e6-9a13732699c0","RegionGUID":"582bbfae-70b9-46ff-aed4-777c67926a3e","Name":"Flommens Golfklubb","MapLat":"55.393355","MapLng":"12.827335","GreenOpenType":1},{"GUID":"12ed55f8-4be8-4d47-9256-c5a8769ee1d3","RegionGUID":"0023d53d-b3ce-458b-a88b-5baf111ec7cd","Name":"Flygstadens Golfklubb","MapLat":"56.675292230501","MapLng":"12.816977369189448","GreenOpenType":1},{"GUID":"624eab49-bc55-4e51-80ff-c8b60b17bd95","RegionGUID":"555162c8-f1a6-477d-9a3f-a89378fcda21","Name":"Fogdö Golfklubb","MapLat":"59.4338486","MapLng":"16.8753844","GreenOpenType":1},{"GUID":"95371da0-9521-4974-a669-43b08db100c6","RegionGUID":"b9984d7d-2dc1-40e7-9f3b-dc5b63108a73","Name":"Fors Golfklubb","MapLat":"59.103408315329254","MapLng":"18.124404676782234","GreenOpenType":1},{"GUID":"b436ba92-ed95-471a-a25c-2ad1bfa37f9b","RegionGUID":"27b4c76b-4980-4ebe-9fbc-95133d05d777","Name":"Forsbacka Golfklubb","MapLat":"59.091468293293616","MapLng":"12.612967681884752","GreenOpenType":1},{"GUID":"19fdc91a-f8f3-4707-9f52-603e3c5e83f5","RegionGUID":"534d22b7-4904-472a-b5db-e7da7e8f41ba","Name":"Forsgårdens Golfklubb","MapLat":"57.4947146","MapLng":"12.0989596","GreenOpenType":1},{"GUID":"dce2f69c-c7d5-49bc-9cb2-fb257089bed4","RegionGUID":"021a3c4d-08b2-4575-9c52-0b9f326b4167","Name":"ForshagaDeje Golfklubb","MapLat":"59.5992491","MapLng":"13.4211851","GreenOpenType":0},{"GUID":"e98881a2-7704-4c87-84b7-ac57153fd6fc","RegionGUID":"8d855241-afa9-4df5-aea7-8a0d7d47a573","Name":"Friiberghs Golfklubb","MapLat":"59.69852558951445","MapLng":"17.490479346728502","GreenOpenType":1},{"GUID":"75cdb886-bcb9-4e6c-9771-4f74eaf35903","RegionGUID":"c677a7df-445e-4740-a88c-de3d818b577f","Name":"Frösåker Golfklubb","MapLat":"59.5399141299435","MapLng":"16.750313280468745","GreenOpenType":1},{"GUID":"af74d704-4f7e-4974-b260-0bcc0b0ab04d","RegionGUID":"c677a7df-445e-4740-a88c-de3d818b577f","Name":"Fullerö Golfklubb","MapLat":"59.5648224","MapLng":"16.5048656","GreenOpenType":1},{"GUID":"1b01d7c6-3c31-4419-9cf2-bec8ab613e3f","RegionGUID":"a896b971-2411-49b3-9524-c5f88ce038ae","Name":"Funäsfjällens Golfklubb","MapLat":"62.5364932","MapLng":"12.6125649","GreenOpenType":-1},{"GUID":"29ef30cd-00c7-4702-be17-b14e26bfdbbf","RegionGUID":"71034d1a-4ece-4696-a164-0c39e7d52241","Name":"Furudals-Bruks Golfklubb","MapLat":"61.1948564","MapLng":"15.1759597","GreenOpenType":1},{"GUID":"eb75f30e-40aa-493a-94d2-3026b8a87b54","RegionGUID":"b9984d7d-2dc1-40e7-9f3b-dc5b63108a73","Name":"Fågelbro Golf & Country Club","MapLat":"59.276856","MapLng":"18.561873","GreenOpenType":1},{"GUID":"8ecf5333-a6b9-40d0-a67f-66eb50eccf91","RegionGUID":"71034d1a-4ece-4696-a164-0c39e7d52241","Name":"Gagnefs Golfklubb","MapLat":"60.53928270270616","MapLng":"15.05201069101564","GreenOpenType":1},{"GUID":"589b3516-3413-473b-bb11-6f4999846484","RegionGUID":"6a24ca2d-997d-4ee4-bd61-ce27ed2c0866","Name":"Glasrikets Golfklubb Växjö","MapLat":"56.902643","MapLng":"14.86449","GreenOpenType":1},{"GUID":"c59f9c01-3837-4093-8110-616e7ba5909e","RegionGUID":"e7050e0b-6d77-4f32-9704-1e45f4e9ee63","Name":"Golfens Gröna Kort","MapLat":null,"MapLng":null,"GreenOpenType":-1},{"GUID":"3cd9cd71-5fb4-40d0-9214-db25a7ead410","RegionGUID":"b9984d7d-2dc1-40e7-9f3b-dc5b63108a73","Name":"GolfStar Golf Club","MapLat":"59.520485005780515","MapLng":"17.71734486203613","GreenOpenType":1},{"GUID":"cc458820-40f3-4c0e-a0d5-7dc2990ffe1d","RegionGUID":"8d855241-afa9-4df5-aea7-8a0d7d47a573","Name":"GolfUppsala","MapLat":"59.81474802500691","MapLng":"17.49342927778321","GreenOpenType":1},{"GUID":"c8bb165f-0af1-4b9a-9153-49dc96bc9f95","RegionGUID":"5becf3a2-6a0c-442f-9bae-db8aea6e320d","Name":"Gotska Golfklubb","MapLat":"57.6585088","MapLng":"18.3285641","GreenOpenType":1},{"GUID":"85b228ed-4486-4c93-803d-4d17c517fe4e","RegionGUID":"ae8331f0-bbf2-48c6-8dc0-cd6144da70dc","Name":"Granöbygdens Golfklubb","MapLat":"64.2157192","MapLng":"19.3899571","GreenOpenType":1},{"GUID":"6ba9578d-0959-40ed-8512-35cb79676d9a","RegionGUID":"b9984d7d-2dc1-40e7-9f3b-dc5b63108a73","Name":"Grindslanten Golfklubb","MapLat":"59.49375588020111","MapLng":"17.88058774177248","GreenOpenType":1},{"GUID":"0b6aaa8f-f714-42d4-9ae6-6e5cc48271a9","RegionGUID":"555162c8-f1a6-477d-9a3f-a89378fcda21","Name":"Gripsholms Golfklubb","MapLat":"59.25992555564889","MapLng":"17.21348122037964","GreenOpenType":0},{"GUID":"f1741aa9-b34f-4820-a681-cbc48ad48b2a","RegionGUID":"555162c8-f1a6-477d-9a3f-a89378fcda21","Name":"Grytsberg Golfklubb","MapLat":"59.102142","MapLng":"16.989670","GreenOpenType":1},{"GUID":"16874907-2c6f-433d-825d-014b3d42021d","RegionGUID":"6a24ca2d-997d-4ee4-bd61-ce27ed2c0866","Name":"Gränna Golfklubb","MapLat":"57.9897200543971","MapLng":"14.430523419824211","GreenOpenType":1},{"GUID":"322ef85d-6912-4eee-86bd-932406fa6568","RegionGUID":"534d22b7-4904-472a-b5db-e7da7e8f41ba","Name":"Gräppås Golfklubb","MapLat":"57.4347857","MapLng":"11.9764984","GreenOpenType":1},{"GUID":"b896ac05-3e5e-479e-b035-4393e30b49fd","RegionGUID":"8d855241-afa9-4df5-aea7-8a0d7d47a573","Name":"Grönlund Golfklubb","MapLat":"59.861451280926666","MapLng":"18.07003433139648","GreenOpenType":1},{"GUID":"30f2a88b-e531-4400-b9f4-38248a5a96d3","RegionGUID":"534d22b7-4904-472a-b5db-e7da7e8f41ba","Name":"Gullbringa Golf & Country Club","MapLat":"57.8825418","MapLng":"11.7708887","GreenOpenType":1},{"GUID":"62228922-d348-4b22-b4dd-073d511e3d29","RegionGUID":"5becf3a2-6a0c-442f-9bae-db8aea6e320d","Name":"Gumbalde Golfklubb","MapLat":"57.286025613041765","MapLng":"18.470833436230485","GreenOpenType":1},{"GUID":"a561fb83-ddb6-47dd-9aa5-806073fee764","RegionGUID":"ae8331f0-bbf2-48c6-8dc0-cd6144da70dc","Name":"Gunnarns Golfklubb","MapLat":"65.005676","MapLng":"17.678408","GreenOpenType":1},{"GUID":"a0c5f3f0-c0c2-447c-a9ca-a769e2e6388e","RegionGUID":"ae8331f0-bbf2-48c6-8dc0-cd6144da70dc","Name":"Gällivare-Malmbergets Golfklubb","MapLat":"67.17148543787927","MapLng":"20.62015353569335","GreenOpenType":1},{"GUID":"0c48477e-3619-40fd-b7cd-79f92c22a888","RegionGUID":"11502f51-c4c7-425c-a861-987ace64ea8b","Name":"Gävle Golfklubb","MapLat":"60.7002345","MapLng":"17.1780158","GreenOpenType":1},{"GUID":"c55ee829-01f6-49d9-acdf-beb811563be1","RegionGUID":"6a24ca2d-997d-4ee4-bd61-ce27ed2c0866","Name":"Götaströms Golfklubb","MapLat":"57.4518439","MapLng":"14.1031136","GreenOpenType":1},{"GUID":"93efcc71-25e7-4fb4-b983-93cfe0de3bae","RegionGUID":"534d22b7-4904-472a-b5db-e7da7e8f41ba","Name":"Göteborgs Golf Klubb","MapLat":"57.6145522","MapLng":"11.9328586","GreenOpenType":1},{"GUID":"a1c8be9e-8ea7-4058-8608-9d55e2960648","RegionGUID":"b9984d7d-2dc1-40e7-9f3b-dc5b63108a73","Name":"Hagby Golfklubb","MapLat":"59.48958788467712","MapLng":"18.254003114355456","GreenOpenType":-1},{"GUID":"c3263dd8-7236-4f1a-8dfa-509ea4608161","RegionGUID":"71034d1a-4ece-4696-a164-0c39e7d52241","Name":"Hagge Golfklubb","MapLat":"60.1159647","MapLng":"15.2493999","GreenOpenType":1},{"GUID":"2a2ed30e-6cdd-46aa-a13b-e01d1a50f799","RegionGUID":"8d855241-afa9-4df5-aea7-8a0d7d47a573","Name":"Hallstaviks Golfklubb","MapLat":"60.0397640","MapLng":"18.5939310","GreenOpenType":1},{"GUID":"23f73e43-02ec-4b6a-8db8-cfe672b5a7bb","RegionGUID":"0023d53d-b3ce-458b-a88b-5baf111ec7cd","Name":"Halmstad Golfarena","MapLat":"56.682487","MapLng":"12.729012","GreenOpenType":1},{"GUID":"16a2486d-343b-4529-8732-4d292b96faf8","RegionGUID":"0023d53d-b3ce-458b-a88b-5baf111ec7cd","Name":"Halmstad Golfklubb","MapLat":"56.6470653","MapLng":"12.7354158","GreenOpenType":1},{"GUID":"dcfeb718-54a0-492e-9173-66ec144d05d6","RegionGUID":"b9984d7d-2dc1-40e7-9f3b-dc5b63108a73","Name":"Hammarby Golfklubb","MapLat":null,"MapLng":null,"GreenOpenType":-1},{"GUID":"76c68e3d-5070-477e-8999-1707fd3439f0","RegionGUID":"021a3c4d-08b2-4575-9c52-0b9f326b4167","Name":"Hammarö Golfklubb","MapLat":"59.3026107","MapLng":"13.5423028","GreenOpenType":1},{"GUID":"a4477e46-3128-43c8-a887-3bbc1166e736","RegionGUID":"b9984d7d-2dc1-40e7-9f3b-dc5b63108a73","Name":"Haninge Golfklubb","MapLat":"59.1044895","MapLng":"18.1957462","GreenOpenType":1},{"GUID":"b59f2605-7e54-4875-bf98-ba618286a197","RegionGUID":"b9984d7d-2dc1-40e7-9f3b-dc5b63108a73","Name":"HaningeStrand Golfklubb","MapLat":"59.100662","MapLng":"18.196914","GreenOpenType":1},{"GUID":"7ec6d4cc-3b5f-41f5-826f-12b812d2ba5e","RegionGUID":"ae8331f0-bbf2-48c6-8dc0-cd6144da70dc","Name":"Haparanda Golfklubb","MapLat":"65.8617696","MapLng":"24.1199549","GreenOpenType":-1},{"GUID":"8d8ce6de-7984-48f7-8da9-29b984512df2","RegionGUID":"b9984d7d-2dc1-40e7-9f3b-dc5b63108a73","Name":"Happy Golfers","MapLat":null,"MapLng":null,"GreenOpenType":-1},{"GUID":"e5ad78b8-1e9e-4382-b2e6-6172a97426ba","RegionGUID":"0023d53d-b3ce-458b-a88b-5baf111ec7cd","Name":"Harabäckens Golfklubb","MapLat":"57.13623025329313","MapLng":"12.398310916333006","GreenOpenType":1},{"GUID":"7dfe06e9-4b77-420d-9f5d-89c7475d71de","RegionGUID":"11502f51-c4c7-425c-a861-987ace64ea8b","Name":"Hasselabygdens Golfklubb","MapLat":"62.107100896000965","MapLng":"16.675433611920177","GreenOpenType":2},{"GUID":"7de76695-b1ca-41b4-b356-8e1814a9fdff","RegionGUID":"0023d53d-b3ce-458b-a88b-5baf111ec7cd","Name":"Haverdals Golfklubb","MapLat":"56.71561783621033","MapLng":"12.705751927569509","GreenOpenType":1},{"GUID":"66952b31-5f61-4ded-b14a-7e869372df66","RegionGUID":"71034d1a-4ece-4696-a164-0c39e7d52241","Name":"Hedemora Golfklubb","MapLat":"60.24558631936473","MapLng":"15.916281087841794","GreenOpenType":0},{"GUID":"fb8d7b30-978f-40f3-913d-52cce87a02ee","RegionGUID":"a896b971-2411-49b3-9524-c5f88ce038ae","Name":"Hede-Vemdalens Golfklubb","MapLat":"62.424916","MapLng":"13.517175","GreenOpenType":1},{"GUID":"f2acd4c6-5ae4-4589-9ee6-845ecd47a492","RegionGUID":"582bbfae-70b9-46ff-aed4-777c67926a3e","Name":"Helsingborgs Golfklubb","MapLat":"56.159545","MapLng":"12.566562","GreenOpenType":1},{"GUID":"fb41e15c-fea5-437c-a532-e57ee1666b4f","RegionGUID":"52f851b7-0891-43e2-9e1a-3b347514159e","Name":"Herrljunga Golfklubb","MapLat":"58.04623487808908","MapLng":"13.093485972460956","GreenOpenType":1},{"GUID":"d66531e2-f814-4421-91c2-13a6634e7ffb","RegionGUID":"582bbfae-70b9-46ff-aed4-777c67926a3e","Name":"HG Golf Glumslöv","MapLat":"55.9470629","MapLng":"12.8171731","GreenOpenType":1},{"GUID":"05fba831-4229-489d-8366-a8ff12bd717b","RegionGUID":"534d22b7-4904-472a-b5db-e7da7e8f41ba","Name":"Hills Golf & Sports Club","MapLat":"57.628997887766126","MapLng":"12.013400137573237","GreenOpenType":1},{"GUID":"96f883b9-5635-4238-81ef-0f4ac2c8609c","RegionGUID":"534d22b7-4904-472a-b5db-e7da7e8f41ba","Name":"Hills Golfklubb","MapLat":null,"MapLng":null,"GreenOpenType":-1},{"GUID":"2aa7c318-5996-43fc-aa2c-3c69ec22d11c","RegionGUID":"582bbfae-70b9-46ff-aed4-777c67926a3e","Name":"Hinton Golf Club","MapLat":"55.5307606","MapLng":"13.1008737","GreenOpenType":1},{"GUID":"4739ea86-b1eb-4775-9f97-9556f6698ef8","RegionGUID":"0023d53d-b3ce-458b-a88b-5baf111ec7cd","Name":"Hofgårds Golfklubb","MapLat":"57.14935943135557","MapLng":"12.479945320312487","GreenOpenType":1},{"GUID":"b236ce2f-5fbb-4d9e-ac48-b2cf52e5e1c6","RegionGUID":"11502f51-c4c7-425c-a861-987ace64ea8b","Name":"Hofors Golfklubb","MapLat":"60.5240661","MapLng":"16.3618995","GreenOpenType":1},{"GUID":"26dd7e90-0b8a-461b-820b-3d6e317fd46a","RegionGUID":"0023d53d-b3ce-458b-a88b-5baf111ec7cd","Name":"Holms Golfklubb","MapLat":"56.756034","MapLng":"12.87558","GreenOpenType":2},{"GUID":"d895e0ec-cde5-4b63-8ffc-b9a63e74c580","RegionGUID":"6a24ca2d-997d-4ee4-bd61-ce27ed2c0866","Name":"Hooks Golfklubb","MapLat":"57.5384640","MapLng":"14.2726726","GreenOpenType":1},{"GUID":"67c44684-78dc-40e5-9593-ea76324e4e59","RegionGUID":"b9984d7d-2dc1-40e7-9f3b-dc5b63108a73","Name":"Huddinge Golfklubb","MapLat":null,"MapLng":null,"GreenOpenType":-1},{"GUID":"1840ca30-9bac-489b-9778-9fb1600bccbe","RegionGUID":"11502f51-c4c7-425c-a861-987ace64ea8b","Name":"Hudiksvalls Golfklubb","MapLat":"61.7052669","MapLng":"17.1291359","GreenOpenType":1},{"GUID":"0778a142-42dd-40c9-a478-f5d1b2a9f64a","RegionGUID":"52f851b7-0891-43e2-9e1a-3b347514159e","Name":"Hulta-Bollebygd Golfklubb","MapLat":"57.69695202626594","MapLng":"12.577138043994136","GreenOpenType":1},{"GUID":"adc6eced-0cba-4595-b87f-bbc08085f088","RegionGUID":"b9984d7d-2dc1-40e7-9f3b-dc5b63108a73","Name":"Husby Golf Club Österhaninge","MapLat":"59.123464","MapLng":"18.157654","GreenOpenType":1},{"GUID":"3e9a5030-f9b6-431f-8e96-c8bba24d8818","RegionGUID":"904fe11a-03c0-4a4d-b8ac-8b0694b01ed3","Name":"Hussborg Golfklubb","MapLat":"62.4969448","MapLng":"16.0162980","GreenOpenType":2},{"GUID":"1c54070d-14c3-46c0-8c0b-445bc51a500f","RegionGUID":"b9984d7d-2dc1-40e7-9f3b-dc5b63108a73","Name":"Huvudstadens Golfklubb","MapLat":"59.5501817","MapLng":"18.0377206","GreenOpenType":0},{"GUID":"c135956b-2811-4678-8683-26a54ed126fa","RegionGUID":"c677a7df-445e-4740-a88c-de3d818b577f","Name":"Hälla Golfklubb","MapLat":"59.61105221799791","MapLng":"16.631103869274902","GreenOpenType":1},{"GUID":"d2cb1058-1edf-48b4-b563-f1c47a25c763","RegionGUID":"d7bfa18e-2f1d-4bdf-86e4-39f2fe75183a","Name":"Härnösands Golfklubb","MapLat":"62.67114016521836","MapLng":"17.947922198672494","GreenOpenType":1},{"GUID":"2ebbfd91-4467-465a-a754-37933a812ae5","RegionGUID":"b9984d7d-2dc1-40e7-9f3b-dc5b63108a73","Name":"Hässelby Golfklubb","MapLat":null,"MapLng":null,"GreenOpenType":1},{"GUID":"459a33a6-9018-4845-b76b-c0b8095d1319","RegionGUID":"582bbfae-70b9-46ff-aed4-777c67926a3e","Name":"Hässlegårdens Golfklubb","MapLat":"56.1497392","MapLng":"13.7515510","GreenOpenType":1},{"GUID":"6b4fed1e-afbb-4f1d-a439-029e59da7cde","RegionGUID":"582bbfae-70b9-46ff-aed4-777c67926a3e","Name":"Höganäs Golfklubb","MapLat":"56.18450","MapLng":"12.56804","GreenOpenType":1},{"GUID":"d293fd63-e84f-46ef-a435-841d79acc510","RegionGUID":"11502f51-c4c7-425c-a861-987ace64ea8b","Name":"Högbo Golfklubb","MapLat":"60.666468","MapLng":"16.811614","GreenOpenType":1},{"GUID":"36c54f4a-df63-4ce4-a1ba-f211707fc8a0","RegionGUID":"52f851b7-0891-43e2-9e1a-3b347514159e","Name":"Hökensås Golfklubb","MapLat":"58.249886","MapLng":"14.210879","GreenOpenType":1},{"GUID":"1183d9a0-b026-425c-ad63-23773f257d87","RegionGUID":"52f851b7-0891-43e2-9e1a-3b347514159e","Name":"Hörlycke Golfklubb","MapLat":"58.2487315","MapLng":"12.2596807","GreenOpenType":1},{"GUID":"f7a3a222-68da-4f7d-b0dc-e8a833d8a0b8","RegionGUID":"71034d1a-4ece-4696-a164-0c39e7d52241","Name":"Idrefjällens Golfklubb","MapLat":"61.87252735397361","MapLng":"12.696417884875503","GreenOpenType":1},{"GUID":"b375203e-140a-4c92-9bcf-27987146dd25","RegionGUID":"b9984d7d-2dc1-40e7-9f3b-dc5b63108a73","Name":"Idrottshögskolans Golfklubb","MapLat":"59.34674900005994","MapLng":"18.08074761622315","GreenOpenType":-1},{"GUID":"e27012eb-25d7-44f0-8a82-3901b25d776b","RegionGUID":"b9984d7d-2dc1-40e7-9f3b-dc5b63108a73","Name":"Ingarö Golf","MapLat":"59.28726260907379","MapLng":"18.454498634985334","GreenOpenType":-1},{"GUID":"eebee5e4-3b74-4827-91af-a29bb71dd31b","RegionGUID":"b9984d7d-2dc1-40e7-9f3b-dc5b63108a73","Name":"Ingarö Golfklubb","MapLat":"59.2860113","MapLng":"18.4519700","GreenOpenType":1},{"GUID":"db4e78a8-1eb1-4573-8c0f-5b4988df61e9","RegionGUID":"27d0c2e5-3ca5-4f10-be47-860547b99396","Name":"Ingelsta Golfklubb","MapLat":"58.63195776982191","MapLng":"16.168206183020022","GreenOpenType":1},{"GUID":"e0f4b5b0-94da-4eb7-a67c-69c69e798116","RegionGUID":"6a24ca2d-997d-4ee4-bd61-ce27ed2c0866","Name":"Isaberg Golfklubb","MapLat":"57.4415023","MapLng":"13.6599435","GreenOpenType":0},{"GUID":"bb61bd0e-f87b-499e-916b-dfa43d9286f2","RegionGUID":"b9984d7d-2dc1-40e7-9f3b-dc5b63108a73","Name":"Jarlabanke Golfklubb","MapLat":"59.48831468923535","MapLng":"18.07268565044619","GreenOpenType":1},{"GUID":"4b26035c-4743-4a72-b8fb-614cf900094e","RegionGUID":"8d855241-afa9-4df5-aea7-8a0d7d47a573","Name":"Johannesberg Golfklubb","MapLat":"59.730296861879175","MapLng":"18.192050402392574","GreenOpenType":1},{"GUID":"7e946ea1-6501-4668-bd28-8ceac496439c","RegionGUID":"b9984d7d-2dc1-40e7-9f3b-dc5b63108a73","Name":"Järfälla Golfklubb","MapLat":"59.3997438070161","MapLng":"17.819959999536135","GreenOpenType":-1},{"GUID":"01d929db-d76a-4b25-b6c3-db86c1717ef7","RegionGUID":"11502f51-c4c7-425c-a861-987ace64ea8b","Name":"Järvsöbadens Golfklubb","MapLat":"61.7073388","MapLng":"16.1648813","GreenOpenType":1},{"GUID":"02de03b9-ea7a-4c04-9cd6-e8c59b72abfa","RegionGUID":"6a24ca2d-997d-4ee4-bd61-ce27ed2c0866","Name":"Jönköpings Golfklubb","MapLat":"57.751130","MapLng":"14.142360","GreenOpenType":1},{"GUID":"50bf0e03-927a-4e87-bc11-969d0f09f723","RegionGUID":"555162c8-f1a6-477d-9a3f-a89378fcda21","Name":"Jönåkers Golfklubb","MapLat":"58.747288","MapLng":"16.716385","GreenOpenType":1},{"GUID":"fe3e16c5-07b3-4e3d-acb4-f0294476a6fd","RegionGUID":"ae8331f0-bbf2-48c6-8dc0-cd6144da70dc","Name":"Kalix Golfklubb","MapLat":"65.84237877507706","MapLng":"23.15203256761476","GreenOpenType":1},{"GUID":"86da40a2-41e2-4f5b-b9c5-39919bd6e3a9","RegionGUID":"555162c8-f1a6-477d-9a3f-a89378fcda21","Name":"Kallfors Golf","MapLat":"59.11365561067458","MapLng":"17.54970280358275","GreenOpenType":1},{"GUID":"e4791038-9d9c-4862-b2aa-ba3c5f42298c","RegionGUID":"6a24ca2d-997d-4ee4-bd61-ce27ed2c0866","Name":"Kalmar Golfklubb","MapLat":"56.71681657108565","MapLng":"16.34765520250243","GreenOpenType":1},{"GUID":"fb7e3f84-d041-4003-b8e0-d9bcb35cb84e","RegionGUID":"941574a5-3109-455b-90f8-ee3eede5dd85","Name":"Karlshamns Golfklubb","MapLat":"56.20855454538413","MapLng":"14.761808967590335","GreenOpenType":1},{"GUID":"71601e0d-72de-46ad-872a-43c372be573b","RegionGUID":"e0ad8cfd-8269-405c-a18e-082a4025da21","Name":"Karlskoga Golfklubb","MapLat":"59.30212","MapLng":"14.57568","GreenOpenType":1},{"GUID":"35ff6fbb-7f77-4629-b414-9b6e313baf76","RegionGUID":"021a3c4d-08b2-4575-9c52-0b9f326b4167","Name":"Karlstads Golfklubb","MapLat":"59.4336224","MapLng":"13.5211173","GreenOpenType":1},{"GUID":"2eb58cf7-c731-4fa5-b46b-bdc9543697b9","RegionGUID":"555162c8-f1a6-477d-9a3f-a89378fcda21","Name":"Katrineholms Golfklubb","MapLat":"58.974452","MapLng":"16.317006","GreenOpenType":1},{"GUID":"9cf5a765-8a51-405c-97fd-364dd9a8dfb4","RegionGUID":"555162c8-f1a6-477d-9a3f-a89378fcda21","Name":"Kiladalens Golfklubb","MapLat":"58.7359898","MapLng":"16.8969779","GreenOpenType":1},{"GUID":"402c47de-6bf7-47da-82d9-d3053777c684","RegionGUID":"021a3c4d-08b2-4575-9c52-0b9f326b4167","Name":"Kils Golfklubb","MapLat":"59.5519399539017","MapLng":"13.348020016113281","GreenOpenType":1},{"GUID":"944ba421-fdac-43a3-91f2-5ac686ebace0","RegionGUID":"27d0c2e5-3ca5-4f10-be47-860547b99396","Name":"Kinda Golfklubb","MapLat":"57.98404987565997","MapLng":"15.514269403662095","GreenOpenType":1},{"GUID":"c2d4c750-9454-4663-b6d4-05422cc4a24c","RegionGUID":"52f851b7-0891-43e2-9e1a-3b347514159e","Name":"Kinds Golfklubb","MapLat":"57.4631858","MapLng":"13.1799718","GreenOpenType":1},{"GUID":"eff34047-d8cc-4893-b6ce-4572acaaf3fc","RegionGUID":"ae8331f0-bbf2-48c6-8dc0-cd6144da70dc","Name":"Kiruna Golfklubb","MapLat":"67.8556","MapLng":"20.2979","GreenOpenType":1},{"GUID":"05f79491-b8aa-40e3-ba2d-6c98b2e429c4","RegionGUID":"0023d53d-b3ce-458b-a88b-5baf111ec7cd","Name":"Klosterfjordens Golfklubb","MapLat":"57.2253734","MapLng":"12.2244248","GreenOpenType":1},{"GUID":"43daa1c7-2cc3-4e4c-9f2c-c0ea60ac8e91","RegionGUID":"a896b971-2411-49b3-9524-c5f88ce038ae","Name":"Klövsjö-Vemdalens Golfklubb","MapLat":"62.4780538","MapLng":"14.2306092","GreenOpenType":1},{"GUID":"dc2ef0f4-3d95-4d8f-bb66-62144e54faa0","RegionGUID":"52f851b7-0891-43e2-9e1a-3b347514159e","Name":"Knistad Golf & Country Club","MapLat":"58.42137995557069","MapLng":"13.944231181201165","GreenOpenType":1},{"GUID":"ccaeb43b-67a6-4692-b745-7d70ee8d93ae","RegionGUID":"52f851b7-0891-43e2-9e1a-3b347514159e","Name":"Koberg Golfklubb","MapLat":"58.165724","MapLng":"12.394675","GreenOpenType":1},{"GUID":"3b69e33b-6753-405e-a944-8524ddc1a9d0","RegionGUID":"582bbfae-70b9-46ff-aed4-777c67926a3e","Name":"Kristianstads Golfklubb i Åhus","MapLat":"55.92420743450621","MapLng":"14.273674960790999","GreenOpenType":1},{"GUID":"a4df2951-be67-40c6-a433-7a34f40dc763","RegionGUID":"021a3c4d-08b2-4575-9c52-0b9f326b4167","Name":"Kristinehamns Golfklubb","MapLat":"59.33713928231141","MapLng":"14.140870954150389","GreenOpenType":1},{"GUID":"23637856-4fe5-4389-9c8b-acef90103d88","RegionGUID":"e0ad8cfd-8269-405c-a18e-082a4025da21","Name":"Kumla Golfklubb","MapLat":"59.117988359729154","MapLng":"15.25538453901369","GreenOpenType":1},{"GUID":"f16cdff5-9a83-4830-89fa-fe043d96a346","RegionGUID":"b9984d7d-2dc1-40e7-9f3b-dc5b63108a73","Name":"Kungl. Drottningholms Golfklubb","MapLat":"59.31830534028606","MapLng":"17.856995123559585","GreenOpenType":1},{"GUID":"2ef1890b-1867-4ad5-9589-a12896888076","RegionGUID":"534d22b7-4904-472a-b5db-e7da7e8f41ba","Name":"Kungsbacka Golfklubb","MapLat":"57.493543","MapLng":"11.9859493","GreenOpenType":1},{"GUID":"cfd169c0-d180-4ef6-b159-79901eb806fc","RegionGUID":"534d22b7-4904-472a-b5db-e7da7e8f41ba","Name":"Kungälv-Kode Golfklubb","MapLat":"57.9574997","MapLng":"11.7997233","GreenOpenType":1},{"GUID":"95b5b03d-8f81-427f-bc45-0be174d4ee77","RegionGUID":"8d855241-afa9-4df5-aea7-8a0d7d47a573","Name":"Kåbo Golfklubb","MapLat":"59.8376595","MapLng":"17.6366861","GreenOpenType":-1},{"GUID":"d87e1287-4c86-4ac0-9ab1-d2b3a80366be","RegionGUID":"e0ad8cfd-8269-405c-a18e-082a4025da21","Name":"Kårsta Golfklubb","MapLat":"59.348508","MapLng":"15.195994","GreenOpenType":1},{"GUID":"c4ed8454-4c3d-44a2-994a-ca1488972435","RegionGUID":"582bbfae-70b9-46ff-aed4-777c67926a3e","Name":"Kävlinge Golfklubb","MapLat":"55.7923679196992","MapLng":"13.154150554492196","GreenOpenType":1},{"GUID":"b15257cf-ae4e-4d34-84da-6cb0f6cd5611","RegionGUID":"c677a7df-445e-4740-a88c-de3d818b577f","Name":"Köpings Golfklubb","MapLat":"59.553585998018605","MapLng":"15.947628019238289","GreenOpenType":1},{"GUID":"4405966a-46be-4e99-a972-b0b0fd3e4447","RegionGUID":"6a24ca2d-997d-4ee4-bd61-ce27ed2c0866","Name":"Lagans Golfklubb","MapLat":"56.92237563263456","MapLng":"13.980013246435527","GreenOpenType":1},{"GUID":"552cd028-384f-4609-a52d-18350089b097","RegionGUID":"0023d53d-b3ce-458b-a88b-5baf111ec7cd","Name":"Laholms Golfklubb","MapLat":"56.43614","MapLng":"13.11832","GreenOpenType":1},{"GUID":"6476e0b6-01df-47ed-8e35-38e5b0c5b3b7","RegionGUID":"27d0c2e5-3ca5-4f10-be47-860547b99396","Name":"Landeryds Golfklubb","MapLat":"58.360489","MapLng":"15.710002","GreenOpenType":1},{"GUID":"fa78246c-8c94-4154-bc7b-984ce53efb1d","RegionGUID":"582bbfae-70b9-46ff-aed4-777c67926a3e","Name":"Landskrona Golfklubb","MapLat":"55.903667","MapLng":"12.811142","GreenOpenType":1},{"GUID":"706ecbff-f432-4dbb-bdb3-52cdf036ecc7","RegionGUID":"6a24ca2d-997d-4ee4-bd61-ce27ed2c0866","Name":"Lanna Golfklubb","MapLat":"57.2111870","MapLng":"13.7745744","GreenOpenType":1},{"GUID":"3315d2b5-0d4d-479b-a807-9c8c3447ea81","RegionGUID":"e0ad8cfd-8269-405c-a18e-082a4025da21","Name":"Lannalodge Golfresort","MapLat":"59.241033","MapLng":"14.904445","GreenOpenType":1},{"GUID":"05b7a9d5-d7a3-4015-ac04-8fc4aba011fc","RegionGUID":"71034d1a-4ece-4696-a164-0c39e7d52241","Name":"Leksands Golfklubb","MapLat":"60.74877104393838","MapLng":"15.033988952636705","GreenOpenType":1},{"GUID":"7700b942-8d92-4aa2-9fe3-7b287f3a4c0f","RegionGUID":"534d22b7-4904-472a-b5db-e7da7e8f41ba","Name":"Lerjedalens Golfklubb","MapLat":"57.7941472","MapLng":"12.1033677","GreenOpenType":1},{"GUID":"1912d919-1a41-45e6-b629-c6679ab9bf99","RegionGUID":"941574a5-3109-455b-90f8-ee3eede5dd85","Name":"Leråkra Golfklubb","MapLat":"56.1936325","MapLng":"15.3566547","GreenOpenType":2},{"GUID":"7153812e-2f73-446a-b07f-1355614e05e3","RegionGUID":"0138fd90-d2e6-40b9-b38d-d83d506293ea","Name":"Lettländska klubbar","MapLat":null,"MapLng":null,"GreenOpenType":-1},{"GUID":"1a1f93e8-22b3-4850-a8ae-e4f8d9ce0b88","RegionGUID":"b9984d7d-2dc1-40e7-9f3b-dc5b63108a73","Name":"Lidingö Golfklubb","MapLat":"59.37891010789025","MapLng":"18.12802734375","GreenOpenType":1},{"GUID":"e06b1880-5618-4d8b-8a3f-4bc05916ddef","RegionGUID":"52f851b7-0891-43e2-9e1a-3b347514159e","Name":"Lidköpings Golfklubb","MapLat":"58.4892550","MapLng":"13.2675642","GreenOpenType":1},{"GUID":"729cc0dd-3d6f-4c7c-abc5-d02389f8e3e4","RegionGUID":"e0ad8cfd-8269-405c-a18e-082a4025da21","Name":"Lindesbergs Golfklubb","MapLat":"59.5848912","MapLng":"15.2436877","GreenOpenType":1},{"GUID":"681abfd4-21e5-4d2e-a639-c5a554a1a557","RegionGUID":"6a24ca2d-997d-4ee4-bd61-ce27ed2c0866","Name":"LinksGolf Öland","MapLat":"56.2707636","MapLng":"16.4003974","GreenOpenType":1},{"GUID":"0bef5614-74bc-4e13-9d1f-68e2ef0f9e3d","RegionGUID":"27d0c2e5-3ca5-4f10-be47-860547b99396","Name":"Linköpings Golfklubb","MapLat":"58.3979290","MapLng":"15.5711589","GreenOpenType":1},{"GUID":"4065a42d-3e9c-44b3-85fe-f0536bd13d88","RegionGUID":"0138fd90-d2e6-40b9-b38d-d83d506293ea","Name":"Litauiska klubbar","MapLat":null,"MapLng":null,"GreenOpenType":-1},{"GUID":"e129c6d2-937f-4e0e-b21c-305f0161576b","RegionGUID":"5becf3a2-6a0c-442f-9bae-db8aea6e320d","Name":"Ljugarns Golfklubb","MapLat":"57.35775991618355","MapLng":"18.711404758789083","GreenOpenType":1},{"GUID":"c9427cf5-0c50-4ca7-9143-efda173db0fe","RegionGUID":"582bbfae-70b9-46ff-aed4-777c67926a3e","Name":"Ljungbyheds Golfklubb","MapLat":"56.0724518","MapLng":"13.2213313","GreenOpenType":1},{"GUID":"9709f9fe-8898-4879-81ff-dae3c195369e","RegionGUID":"582bbfae-70b9-46ff-aed4-777c67926a3e","Name":"Ljunghusens Golfklubb","MapLat":"55.39043","MapLng":"12.90725","GreenOpenType":1},{"GUID":"2972bd9f-aef9-4fe0-b6af-f77433a08de9","RegionGUID":"11502f51-c4c7-425c-a861-987ace64ea8b","Name":"Ljusdals Golfklubb","MapLat":"61.81740426631022","MapLng":"16.123378516796894","GreenOpenType":1},{"GUID":"7d08414d-352a-4a71-8e5d-01909fd096c6","RegionGUID":"b9984d7d-2dc1-40e7-9f3b-dc5b63108a73","Name":"Ljusterö Golfklubb","MapLat":"59.5062167","MapLng":"18.5701708","GreenOpenType":1},{"GUID":"03248b06-2bf2-4364-adb1-b7a4a01508ac","RegionGUID":"6a24ca2d-997d-4ee4-bd61-ce27ed2c0866","Name":"Loftahammars Golfklubb","MapLat":"57.90959","MapLng":"16.69911","GreenOpenType":1},{"GUID":"23d0f036-77da-4676-88d6-e38f4814528d","RegionGUID":"ae8331f0-bbf2-48c6-8dc0-cd6144da70dc","Name":"Luleå Golfklubb","MapLat":"65.6852433","MapLng":"22.0923028","GreenOpenType":1},{"GUID":"e2094630-771a-4c20-adcf-09026a852481","RegionGUID":"582bbfae-70b9-46ff-aed4-777c67926a3e","Name":"Lunds Akademiska Golfklubb","MapLat":"55.7120571","MapLng":"13.2797393","GreenOpenType":1},{"GUID":"e25515a7-140b-4d62-8b74-9ff5ef103d25","RegionGUID":"021a3c4d-08b2-4575-9c52-0b9f326b4167","Name":"Lundsbergs Golfklubb","MapLat":"59.48721480597656","MapLng":"14.185900022143576","GreenOpenType":1},{"GUID":"42ac6cd7-e704-4523-b0ea-fcc5ae06459c","RegionGUID":"52f851b7-0891-43e2-9e1a-3b347514159e","Name":"Lundsbrunn Golfklubb","MapLat":"58.4749142198852","MapLng":"13.4422711961326","GreenOpenType":2},{"GUID":"d3fac890-0103-48d7-b610-5fe890d91fdf","RegionGUID":"534d22b7-4904-472a-b5db-e7da7e8f41ba","Name":"Lunna Golf & Country Club","MapLat":"57.92802","MapLng":"11.87972","GreenOpenType":1},{"GUID":"507f803d-e99c-46ba-91a7-4444cb745dc2","RegionGUID":"534d22b7-4904-472a-b5db-e7da7e8f41ba","Name":"Lycke Golf & Country Club Marstrand","MapLat":"57.8668","MapLng":"11.7156","GreenOpenType":1},{"GUID":"d39cb40c-8227-4231-9ff7-03acb0c8c879","RegionGUID":"27b4c76b-4980-4ebe-9fbc-95133d05d777","Name":"Lyckorna Golfklubb","MapLat":"58.19964669227461","MapLng":"11.901636099462891","GreenOpenType":-1},{"GUID":"20ecff6c-f006-47d5-94df-5c0c0f1eb70f","RegionGUID":"ae8331f0-bbf2-48c6-8dc0-cd6144da70dc","Name":"Lycksele Golfklubb","MapLat":"64.60633158033143","MapLng":"18.689068509692372","GreenOpenType":1},{"GUID":"9f17c9f0-adc1-4994-af4e-df418de0e3c6","RegionGUID":"582bbfae-70b9-46ff-aed4-777c67926a3e","Name":"Lydinge Golfklubb","MapLat":"56.0986250","MapLng":"12.8660512","GreenOpenType":0},{"GUID":"a8ec77cd-e5f1-49c2-9bff-27140c9bba8e","RegionGUID":"534d22b7-4904-472a-b5db-e7da7e8f41ba","Name":"Lysegårdens Golfklubb","MapLat":"57.942279142499345","MapLng":"12.033528806323224","GreenOpenType":1},{"GUID":"5fa12101-ead5-46ee-9f2a-f32184b8413e","RegionGUID":"27b4c76b-4980-4ebe-9fbc-95133d05d777","Name":"Lysekil Holma Golfklubb","MapLat":"58.37579","MapLng":"11.55211","GreenOpenType":1},{"GUID":"7ea64759-671a-4eb8-9089-1489700f9861","RegionGUID":"6a24ca2d-997d-4ee4-bd61-ce27ed2c0866","Name":"Lysingsbadets Golfklubb","MapLat":"57.7365373","MapLng":"16.6597671","GreenOpenType":1},{"GUID":"2c45cd68-aca9-45c8-ac09-c2a89ab30da5","RegionGUID":"52f851b7-0891-43e2-9e1a-3b347514159e","Name":"Läckö Golfklubb","MapLat":"58.65983","MapLng":"13.11007","GreenOpenType":1},{"GUID":"cf4cab7c-2710-4683-a913-d3c2734b6599","RegionGUID":"534d22b7-4904-472a-b5db-e7da7e8f41ba","Name":"Lökeberg Golfklubb","MapLat":"57.89004710302844","MapLng":"11.776159199023452","GreenOpenType":1},{"GUID":"def25819-78d1-4670-8400-78e6a3b0d202","RegionGUID":"11502f51-c4c7-425c-a861-987ace64ea8b","Name":"Mackmyra Golf","MapLat":"60.63595790504697","MapLng":"16.964028183300798","GreenOpenType":0},{"GUID":"177bbca8-6df7-4a78-b9f7-f242451a4e96","RegionGUID":"582bbfae-70b9-46ff-aed4-777c67926a3e","Name":"Malmö Burlöv Golfklubb","MapLat":"55.6171944","MapLng":"13.0630563","GreenOpenType":1},{"GUID":"ba01771e-a7b1-4186-8059-43d7d2b8c422","RegionGUID":"71034d1a-4ece-4696-a164-0c39e7d52241","Name":"Malungs Golfklubb","MapLat":"60.64329985261909","MapLng":"13.739856432324217","GreenOpenType":1},{"GUID":"061171ec-1a0d-450a-b9d5-d92da8ccf512","RegionGUID":"52f851b7-0891-43e2-9e1a-3b347514159e","Name":"Mariestads Golfklubb","MapLat":"58.69877496767274","MapLng":"13.761381402685537","GreenOpenType":1},{"GUID":"a0b52b5e-d28b-4ad6-b55a-3d06c521e007","RegionGUID":"52f851b7-0891-43e2-9e1a-3b347514159e","Name":"Marks Golfklubb","MapLat":"57.5018354","MapLng":"12.7171499","GreenOpenType":1},{"GUID":"21f828d3-6e59-419d-a866-de31a62bd6d3","RegionGUID":"27d0c2e5-3ca5-4f10-be47-860547b99396","Name":"Mauritzbergs Slott & Golf","MapLat":"58.6059964","MapLng":"16.6777391","GreenOpenType":1},{"GUID":"6afceb44-d22f-4919-9813-558e8dfab6d3","RegionGUID":"27b4c76b-4980-4ebe-9fbc-95133d05d777","Name":"Melleruds Golfklubb","MapLat":"58.70107015995536","MapLng":"12.484176160449199","GreenOpenType":1},{"GUID":"d2b672a9-2921-4b96-ac0c-c46533a28593","RegionGUID":"27d0c2e5-3ca5-4f10-be47-860547b99396","Name":"Mjölby Golfklubb","MapLat":"58.3067753","MapLng":"15.1010520","GreenOpenType":1},{"GUID":"b1446500-b82f-49c8-9b2f-9218ba891177","RegionGUID":"27b4c76b-4980-4ebe-9fbc-95133d05d777","Name":"Mjölkeröds Golfklubb","MapLat":"58.753426774076345","MapLng":"11.239805915185554","GreenOpenType":1},{"GUID":"7271f5e4-bef2-406d-8b1a-6d4699801358","RegionGUID":"71034d1a-4ece-4696-a164-0c39e7d52241","Name":"Mora Golfklubb","MapLat":"61.017367126851454","MapLng":"14.563646229296875","GreenOpenType":1},{"GUID":"210d5b01-6aab-495a-829d-7ec7b8f01bbe","RegionGUID":"27d0c2e5-3ca5-4f10-be47-860547b99396","Name":"Motala Golfklubb","MapLat":"58.512000191595206","MapLng":"15.052559374218752","GreenOpenType":1},{"GUID":"1e74f794-aece-4bb7-8287-3338314b5621","RegionGUID":"534d22b7-4904-472a-b5db-e7da7e8f41ba","Name":"Myra Golfklubb","MapLat":"57.4642639","MapLng":"12.1351035","GreenOpenType":1},{"GUID":"592a35fb-b612-40c6-a4d6-d8d8081cbbdf","RegionGUID":"555162c8-f1a6-477d-9a3f-a89378fcda21","Name":"Mälarbadens Golfklubb","MapLat":"59.4506100","MapLng":"16.4305857","GreenOpenType":1},{"GUID":"40acb3f2-514e-4971-83df-b2f44c568f0f","RegionGUID":"b9984d7d-2dc1-40e7-9f3b-dc5b63108a73","Name":"Mälarö Golfklubb Skytteholm","MapLat":"59.3198000","MapLng":"17.6643000","GreenOpenType":1},{"GUID":"bcf42e61-ce7d-4368-9a37-b3b4e66f8939","RegionGUID":"582bbfae-70b9-46ff-aed4-777c67926a3e","Name":"Mölle Golfklubb","MapLat":"56.2990978","MapLng":"12.4686760","GreenOpenType":2},{"GUID":"447cc8fa-b3da-4e9f-be38-9266585e666c","RegionGUID":"534d22b7-4904-472a-b5db-e7da7e8f41ba","Name":"Mölndals Golfklubb","MapLat":"57.5850374","MapLng":"12.1173622","GreenOpenType":2},{"GUID":"af4abc89-5cac-4c19-a2f1-9c8b0870fbaa","RegionGUID":"6a24ca2d-997d-4ee4-bd61-ce27ed2c0866","Name":"Mönsterås Golfklubb","MapLat":"57.0398947530637","MapLng":"16.423564147949232","GreenOpenType":1},{"GUID":"c387d5d9-3287-4ffb-b21c-6625d3eac29b","RegionGUID":"6a24ca2d-997d-4ee4-bd61-ce27ed2c0866","Name":"Möre Golfklubb","MapLat":"56.44794401067884","MapLng":"16.087401395947275","GreenOpenType":1},{"GUID":"4a0fb9aa-df6c-4fbc-9529-a03bf714da5c","RegionGUID":"b9984d7d-2dc1-40e7-9f3b-dc5b63108a73","Name":"Nacka Golfklubb","MapLat":"59.33793957975585","MapLng":"18.35499617214355","GreenOpenType":1},{"GUID":"16419e26-f209-4b3d-bca5-ac84dcc490ac","RegionGUID":"582bbfae-70b9-46ff-aed4-777c67926a3e","Name":"Naturligtvis Golf & Country Club","MapLat":"55.57446301869603","MapLng":"13.32590103149414","GreenOpenType":1},{"GUID":"f646b5b0-c076-4519-b17f-df16080e286c","RegionGUID":"941574a5-3109-455b-90f8-ee3eede5dd85","Name":"Nicklastorp Golfklubb","MapLat":"56.225574","MapLng":"15.547993","GreenOpenType":1},{"GUID":"0453dddc-9676-437b-94a0-e314c66f1414","RegionGUID":"e0ad8cfd-8269-405c-a18e-082a4025da21","Name":"Nora Golfklubb","MapLat":"59.497503282980425","MapLng":"15.082771776562502","GreenOpenType":1},{"GUID":"255ae6f8-0b2d-478c-9426-8ab0ead41126","RegionGUID":"a896b971-2411-49b3-9524-c5f88ce038ae","Name":"Norderöns Golfklubb/Njord","MapLat":"63.1490023","MapLng":"14.3747058","GreenOpenType":1},{"GUID":"eb74f03b-6a36-4b80-8439-0421a951593e","RegionGUID":"27b4c76b-4980-4ebe-9fbc-95133d05d777","Name":"Norra Backa Golf Fjällbacka ","MapLat":"58.61700","MapLng":"11.32107","GreenOpenType":1},{"GUID":"403b06b1-9371-454f-8a6c-051d523f6b30","RegionGUID":"555162c8-f1a6-477d-9a3f-a89378fcda21","Name":"Norrby Golf","MapLat":"59.3426937652731","MapLng":"17.241155391540513","GreenOpenType":0},{"GUID":"970f943c-6aef-4492-821a-590baa35e26e","RegionGUID":"d7bfa18e-2f1d-4bdf-86e4-39f2fe75183a","Name":"Norrfällsvikens Golfklubb","MapLat":"62.98202812250011","MapLng":"18.532177764648424","GreenOpenType":1},{"GUID":"3ceffa00-21ee-4e2b-a0f7-e1bd1e72ec82","RegionGUID":"27d0c2e5-3ca5-4f10-be47-860547b99396","Name":"Norrköping Söderköping Golfklubb","MapLat":"58.49428356892644","MapLng":"16.1648962099121","GreenOpenType":1},{"GUID":"57c79634-c141-42bd-abc0-7c267f84c63b","RegionGUID":"ae8331f0-bbf2-48c6-8dc0-cd6144da70dc","Name":"Norrmjöle Golfklubb","MapLat":"63.6602","MapLng":"20.1309","GreenOpenType":2},{"GUID":"83afeeae-037a-4299-9a48-543e4d642bfb","RegionGUID":"b9984d7d-2dc1-40e7-9f3b-dc5b63108a73","Name":"Norråva Golfklubb","MapLat":"59.373531023172035","MapLng":"18.556465355761706","GreenOpenType":1},{"GUID":"3a155995-78a3-4393-a6ec-5a9ff94ab6ff","RegionGUID":"ae8331f0-bbf2-48c6-8dc0-cd6144da70dc","Name":"Norsjö Golfklubb","MapLat":"64.98953589505763","MapLng":"19.484478211669927","GreenOpenType":1},{"GUID":"5959cbce-b39e-4e69-b475-88e6323e1d75","RegionGUID":"6a24ca2d-997d-4ee4-bd61-ce27ed2c0866","Name":"Nybro Golfklubb","MapLat":"56.6962790","MapLng":"15.9898872","GreenOpenType":1},{"GUID":"97b1c33d-6aed-4281-a776-4da3b4380cd4","RegionGUID":"555162c8-f1a6-477d-9a3f-a89378fcda21","Name":"Nyköpings Golfklubb","MapLat":"58.7313569","MapLng":"16.9768260","GreenOpenType":1},{"GUID":"acecb9b6-0bad-4840-b6a7-7eb65e34c71c","RegionGUID":"b9984d7d-2dc1-40e7-9f3b-dc5b63108a73","Name":"Nynäshamns Golfklubb","MapLat":"59.00938303019127","MapLng":"17.88325240769044","GreenOpenType":1},{"GUID":"00375f84-e617-40d3-b251-cf86fe32fd45","RegionGUID":"5becf3a2-6a0c-442f-9bae-db8aea6e320d","Name":"När Golfklubb","MapLat":"57.2444633","MapLng":"18.6474798","GreenOpenType":1},{"GUID":"7e224f69-d17e-4a95-9607-a43cfd4fe783","RegionGUID":"6a24ca2d-997d-4ee4-bd61-ce27ed2c0866","Name":"Nässjö Golfklubb","MapLat":"57.67657059033072","MapLng":"14.670844934826647","GreenOpenType":1},{"GUID":"93d8f80e-5d6d-4a3f-adca-78aea5e3a6b8","RegionGUID":"8d855241-afa9-4df5-aea7-8a0d7d47a573","Name":"Olandsbygdens Golfklubb","MapLat":"60.0775916","MapLng":"18.1090145","GreenOpenType":1},{"GUID":"f2ce72af-5754-4f9d-bc89-b277773ac7a2","RegionGUID":"27d0c2e5-3ca5-4f10-be47-860547b99396","Name":"Ombergs Golf Resort","MapLat":"58.25657489771169","MapLng":"14.625970339086928","GreenOpenType":1},{"GUID":"5545c514-b7fe-4806-88bc-9efddf9c0540","RegionGUID":"52f851b7-0891-43e2-9e1a-3b347514159e","Name":"Onsjö Golfklubb","MapLat":"58.3342444","MapLng":"12.3317554","GreenOpenType":1},{"GUID":"d339a782-2963-4987-913b-7ee61b4117f7","RegionGUID":"c677a7df-445e-4740-a88c-de3d818b577f","Name":"Orresta Golfklubb","MapLat":"59.662585631604976","MapLng":"16.840435311230472","GreenOpenType":1},{"GUID":"1d85dfc2-22e2-4626-9f68-97d5542c44c5","RegionGUID":"27b4c76b-4980-4ebe-9fbc-95133d05d777","Name":"Orust Golfklubb","MapLat":"58.1949578","MapLng":"11.5033062","GreenOpenType":1},{"GUID":"03a37368-0728-4132-8e6d-d62c55e0dc6c","RegionGUID":"6a24ca2d-997d-4ee4-bd61-ce27ed2c0866","Name":"Oskarshamns Golfklubb","MapLat":"57.194773596104106","MapLng":"16.393998868261704","GreenOpenType":1},{"GUID":"bc497c20-781c-44d1-9706-1eec83c81410","RegionGUID":"582bbfae-70b9-46ff-aed4-777c67926a3e","Name":"Oxie Golfklubb","MapLat":"55.55026127405104","MapLng":"13.065698107165534","GreenOpenType":1},{"GUID":"433c3ee1-18c0-41a9-8729-14b283b8c6fd","RegionGUID":"534d22b7-4904-472a-b5db-e7da7e8f41ba","Name":"Partille Golfklubb","MapLat":"57.6906501","MapLng":"12.1106213","GreenOpenType":1},{"GUID":"0f746481-8d9c-42f4-942a-ddb1273e5a2d","RegionGUID":"582bbfae-70b9-46ff-aed4-777c67926a3e","Name":"Perstorps Golfklubb","MapLat":"56.1187098","MapLng":"13.4163421","GreenOpenType":1},{"GUID":"7e93225b-2efd-46ce-aef2-2c21ce0558d8","RegionGUID":"582bbfae-70b9-46ff-aed4-777c67926a3e","Name":"PGA Sweden National","MapLat":"55.57683","MapLng":"13.16810","GreenOpenType":1},{"GUID":"6a7c377b-8a0b-4cec-805b-428caeeedfaa","RegionGUID":"ae8331f0-bbf2-48c6-8dc0-cd6144da70dc","Name":"Piteå Golfklubb","MapLat":"65.3175185","MapLng":"21.5279852","GreenOpenType":2},{"GUID":"ffe1b8a1-269c-4f9f-921a-d65a2e56ded2","RegionGUID":"ae8331f0-bbf2-48c6-8dc0-cd6144da70dc","Name":"Porjus Golfklubb","MapLat":"66.9558530","MapLng":"19.8058257","GreenOpenType":-1},{"GUID":"7a12c60d-5ca5-4d11-a336-6c68c652a97a","RegionGUID":"6a24ca2d-997d-4ee4-bd61-ce27ed2c0866","Name":"Ramkvilla Golfklubb","MapLat":"57.20908","MapLng":"14.94401","GreenOpenType":1},{"GUID":"bdde48b6-bd20-41f6-9471-b80bf55f3953","RegionGUID":"6a24ca2d-997d-4ee4-bd61-ce27ed2c0866","Name":"Reftele Golfklubb","MapLat":"57.200092","MapLng":"13.612071","GreenOpenType":-1},{"GUID":"de56a4d4-e7fb-4866-aef4-d696878bd140","RegionGUID":"52f851b7-0891-43e2-9e1a-3b347514159e","Name":"Ribbingsfors Golf & Kultur","MapLat":"58.9649569","MapLng":"14.1212497","GreenOpenType":0},{"GUID":"25d1252c-1e16-4a52-9fa3-9dc2caba313e","RegionGUID":"0023d53d-b3ce-458b-a88b-5baf111ec7cd","Name":"Ringenäs Golfklubb","MapLat":"56.6870528","MapLng":"12.7164781","GreenOpenType":1},{"GUID":"58fc80d7-011c-413e-bc65-2a8ca4241cb8","RegionGUID":"ae8331f0-bbf2-48c6-8dc0-cd6144da70dc","Name":"Robertsfors Golfklubb","MapLat":"64.18614","MapLng":"20.85758","GreenOpenType":1},{"GUID":"e1d94980-ca75-487e-97b4-83d56077e218","RegionGUID":"582bbfae-70b9-46ff-aed4-777c67926a3e","Name":"Romeleåsens Golfklubb","MapLat":"55.5948961","MapLng":"13.5202411","GreenOpenType":1},{"GUID":"6fcb5ca2-49e6-4ea3-b029-83e1aea3bf8b","RegionGUID":"941574a5-3109-455b-90f8-ee3eede5dd85","Name":"Ronneby Golfklubb","MapLat":"56.1896211","MapLng":"15.2935452","GreenOpenType":1},{"GUID":"bd884d92-5ef8-46e1-a4a9-091400f27908","RegionGUID":"8d855241-afa9-4df5-aea7-8a0d7d47a573","Name":"Roslagens Golfklubb Norrtälje","MapLat":"59.799048","MapLng":"18.774734","GreenOpenType":1},{"GUID":"fcf45ca2-09f6-41f3-aaa4-431e20050857","RegionGUID":"a896b971-2411-49b3-9524-c5f88ce038ae","Name":"Rossöns Golfklubb","MapLat":"63.91325489926803","MapLng":"16.299088878881836","GreenOpenType":1},{"GUID":"693abec1-343a-4500-a810-3f2b0f8f41d1","RegionGUID":"582bbfae-70b9-46ff-aed4-777c67926a3e","Name":"Rya Golfklubb","MapLat":"55.97556","MapLng":"12.75770","GreenOpenType":1},{"GUID":"dc7bec63-91ee-4fc3-8570-c182ed4a88a0","RegionGUID":"0023d53d-b3ce-458b-a88b-5baf111ec7cd","Name":"Rydö Golfklubb","MapLat":"56.9578106","MapLng":"13.1315900","GreenOpenType":1},{"GUID":"543bdce8-009b-44c1-bdc8-94fac30e6b78","RegionGUID":"6a24ca2d-997d-4ee4-bd61-ce27ed2c0866","Name":"Ryfors Golfklubb","MapLat":"57.90038768443197","MapLng":"13.815698717480451","GreenOpenType":1},{"GUID":"51f34561-762d-4e2f-8516-b2928b772c04","RegionGUID":"71034d1a-4ece-4696-a164-0c39e7d52241","Name":"Rättviks Golfklubb","MapLat":"60.89916417946647","MapLng":"15.113175797314433","GreenOpenType":1},{"GUID":"d4130441-2c69-4f28-988a-60dac8b0f763","RegionGUID":"582bbfae-70b9-46ff-aed4-777c67926a3e","Name":"S:t Arild Golfklubb","MapLat":"56.2567382","MapLng":"12.5984603","GreenOpenType":1},{"GUID":"9af27a53-edc6-46ba-bccb-897060e62e43","RegionGUID":"582bbfae-70b9-46ff-aed4-777c67926a3e","Name":"S:t Ibbs Golfklubb","MapLat":"55.91420935454331","MapLng":"12.703732809472669","GreenOpenType":1},{"GUID":"a9d7060f-0051-40fc-a021-98b885a55300","RegionGUID":"534d22b7-4904-472a-b5db-e7da7e8f41ba","Name":"S:t Jörgen Park Golf Club","MapLat":"57.7443212","MapLng":"11.9440358","GreenOpenType":1},{"GUID":"e3096047-c1d0-4a8c-9370-3858bbbb38a2","RegionGUID":"11502f51-c4c7-425c-a861-987ace64ea8b","Name":"SAIK Golfklubb","MapLat":"60.591173404291425","MapLng":"16.76779647655488","GreenOpenType":1},{"GUID":"23918d2f-ce19-44a0-8490-d4508e7bdb04","RegionGUID":"c677a7df-445e-4740-a88c-de3d818b577f","Name":"Sala-Heby Golfklubb","MapLat":"59.9429565","MapLng":"16.7166623","GreenOpenType":1},{"GUID":"8b4b61ba-cecc-484e-baac-a64392d83c80","RegionGUID":"b9984d7d-2dc1-40e7-9f3b-dc5b63108a73","Name":"Salems Golfklubb","MapLat":"59.2581162","MapLng":"17.6075647","GreenOpenType":1},{"GUID":"a7cfd26a-9d3c-4442-b785-7218d3d9bf4d","RegionGUID":"b9984d7d-2dc1-40e7-9f3b-dc5b63108a73","Name":"Saltsjöbadens Golfklubb","MapLat":"59.2830619513169","MapLng":"18.26534528774415","GreenOpenType":1},{"GUID":"afc4cf36-caca-4ce6-8c88-eda01190982f","RegionGUID":"71034d1a-4ece-4696-a164-0c39e7d52241","Name":"Samuelsdals Golfklubb","MapLat":"60.58144002018275","MapLng":"15.612394052514658","GreenOpenType":1},{"GUID":"df90eee9-c81f-497d-a7c0-d2a31fa244e6","RegionGUID":"6a24ca2d-997d-4ee4-bd61-ce27ed2c0866","Name":"Sand Golf Club","MapLat":"57.8456101","MapLng":"14.0355092","GreenOpenType":0},{"GUID":"ad96213f-43f1-4e61-923c-eec324284d8b","RegionGUID":"a896b971-2411-49b3-9524-c5f88ce038ae","Name":"Sandnäset Golfklubb","MapLat":"63.28694","MapLng":"14.508777","GreenOpenType":1},{"GUID":"af104c60-1efc-4a58-a7db-f1a1b261ecfc","RegionGUID":"6a24ca2d-997d-4ee4-bd61-ce27ed2c0866","Name":"Saxnäs Golfklubb","MapLat":"56.68840756659042","MapLng":"16.488169417041018","GreenOpenType":1},{"GUID":"3d6e81b6-5769-4a29-871c-2acd77d530ef","RegionGUID":"021a3c4d-08b2-4575-9c52-0b9f326b4167","Name":"Saxå Golfklubb","MapLat":"59.7860951","MapLng":"14.3648981","GreenOpenType":1},{"GUID":"e34c146c-5ebd-4b9b-bb9c-9f2f1f5ac9de","RegionGUID":"8d855241-afa9-4df5-aea7-8a0d7d47a573","Name":"Sigtuna Golfklubb","MapLat":"59.64062140718562","MapLng":"17.725764752978516","GreenOpenType":1},{"GUID":"32c30f53-7ab1-433d-bf06-d478141d14a1","RegionGUID":"534d22b7-4904-472a-b5db-e7da7e8f41ba","Name":"Sisjö Golfklubb","MapLat":"57.6426182","MapLng":"11.9589914","GreenOpenType":1},{"GUID":"07b4e39f-eece-4fd7-8520-51bb02f7a573","RegionGUID":"582bbfae-70b9-46ff-aed4-777c67926a3e","Name":"Sjöbo Golfklubb","MapLat":"55.643426","MapLng":"13.647509","GreenOpenType":1},{"GUID":"6663e4f2-655f-4b75-bffa-bb962b26437c","RegionGUID":"534d22b7-4904-472a-b5db-e7da7e8f41ba","Name":"Sjögärde Golfklubb","MapLat":"57.3531137","MapLng":"12.2498361","GreenOpenType":1},{"GUID":"afba20c1-a445-4a97-841e-c024d3db3ef6","RegionGUID":"27b4c76b-4980-4ebe-9fbc-95133d05d777","Name":"Skaftö Golfklubb","MapLat":"58.23158476269314","MapLng":"11.445177935009765","GreenOpenType":1},{"GUID":"e85a89f3-0bbc-4059-943e-1d3470d10d5a","RegionGUID":"555162c8-f1a6-477d-9a3f-a89378fcda21","Name":"Skavsta Golf","MapLat":null,"MapLng":null,"GreenOpenType":1},{"GUID":"fe4df3e4-353c-42fc-a249-976d2101f248","RegionGUID":"ae8331f0-bbf2-48c6-8dc0-cd6144da70dc","Name":"Skellefteå Golfklubb","MapLat":"64.7069079","MapLng":"20.9726133","GreenOpenType":1},{"GUID":"865dd058-bbc9-4ec4-966c-190b46de8477","RegionGUID":"582bbfae-70b9-46ff-aed4-777c67926a3e","Name":"Skepparslövs Golfklubb","MapLat":"56.0128130","MapLng":"14.0490038","GreenOpenType":1},{"GUID":"965ccdbc-50e1-4f89-ad1f-7894e15a3976","RegionGUID":"8d855241-afa9-4df5-aea7-8a0d7d47a573","Name":"Skepptuna Golfklubb Valla","MapLat":null,"MapLng":null,"GreenOpenType":-1},{"GUID":"074195b0-9825-4a19-b913-1f0517772857","RegionGUID":"c677a7df-445e-4740-a88c-de3d818b577f","Name":"Skerike Golfklubb","MapLat":"59.646527","MapLng":"16.471792","GreenOpenType":2},{"GUID":"bb439000-070f-4393-afe5-2d25064cca1e","RegionGUID":"6a24ca2d-997d-4ee4-bd61-ce27ed2c0866","Name":"Skinnarebo Golf & Country Club","MapLat":"57.712520","MapLng":"14.050494","GreenOpenType":1},{"GUID":"ebe00954-3982-46e2-9d2a-eeba5c03f7ec","RegionGUID":"0023d53d-b3ce-458b-a88b-5baf111ec7cd","Name":"Skogaby Golfklubb","MapLat":"56.540072126537396","MapLng":"13.173284149169922","GreenOpenType":2},{"GUID":"005d2bfc-0da9-47cd-b619-a2db6920ca06","RegionGUID":"582bbfae-70b9-46ff-aed4-777c67926a3e","Name":"Skyrups Golfklubb","MapLat":"56.1298703","MapLng":"13.6690636","GreenOpenType":1},{"GUID":"7ffc6e74-9bd7-43c1-8eec-88750095ab67","RegionGUID":"52f851b7-0891-43e2-9e1a-3b347514159e","Name":"Skövde Golfklubb","MapLat":"58.3695087","MapLng":"13.8078481","GreenOpenType":1},{"GUID":"d3777c9a-420c-4bc1-8650-f76c540869a5","RegionGUID":"5becf3a2-6a0c-442f-9bae-db8aea6e320d","Name":"Slite Golfklubb","MapLat":"57.7188105210317","MapLng":"18.743296327539074","GreenOpenType":1},{"GUID":"030463b0-9817-4a6e-a012-4e280c18454f","RegionGUID":"e0ad8cfd-8269-405c-a18e-082a4025da21","Name":"SM-Veckan Örebro GDF","MapLat":null,"MapLng":null,"GreenOpenType":-1},{"GUID":"8d623555-e2ce-48ea-9044-ef6db79a7cae","RegionGUID":"b9984d7d-2dc1-40e7-9f3b-dc5b63108a73","Name":"Smådalarö Gård","MapLat":"59.1606924441743","MapLng":"18.442769025097675","GreenOpenType":1},{"GUID":"b2961fe8-4832-40b3-9b51-32a61bb0635f","RegionGUID":"71034d1a-4ece-4696-a164-0c39e7d52241","Name":"Snöå Golfklubb","MapLat":"60.53704365327961","MapLng":"14.438180955566393","GreenOpenType":1},{"GUID":"b4d38957-1eff-4bc6-8fc6-033b6299dbd0","RegionGUID":"b9984d7d-2dc1-40e7-9f3b-dc5b63108a73","Name":"Sofielund Golfklubb","MapLat":"59.53848789562179","MapLng":"17.563819939672868","GreenOpenType":1},{"GUID":"d9d7d73d-62d5-422c-aa8c-4a762ecc3a6f","RegionGUID":"d7bfa18e-2f1d-4bdf-86e4-39f2fe75183a","Name":"Sollefteå Golfklubb","MapLat":"63.163608","MapLng":"17.011471","GreenOpenType":1},{"GUID":"c2e2557b-4763-417b-88b7-9a123110c159","RegionGUID":"b9984d7d-2dc1-40e7-9f3b-dc5b63108a73","Name":"Sollentuna Golfklubb","MapLat":"59.470896","MapLng":"17.90264","GreenOpenType":1},{"GUID":"1c3140dc-c854-4124-9c4d-82ffa60f5c69","RegionGUID":"021a3c4d-08b2-4575-9c52-0b9f326b4167","Name":"Sommarro Golf","MapLat":"59.35933025218391","MapLng":"13.471830936279305","GreenOpenType":1},{"GUID":"756870ec-104d-4a3f-8653-332836cce183","RegionGUID":"021a3c4d-08b2-4575-9c52-0b9f326b4167","Name":"Sommarro Junior Golfklubb","MapLat":null,"MapLng":null,"GreenOpenType":-1},{"GUID":"8f9c7588-72c5-4336-9cd4-9d3fdb6332b2","RegionGUID":"27b4c76b-4980-4ebe-9fbc-95133d05d777","Name":"Sotenäs Golfklubb","MapLat":"58.433566098588194","MapLng":"11.378511808105456","GreenOpenType":1},{"GUID":"f3ae647f-4c11-4dac-84b6-7fc435b961c7","RegionGUID":"8d855241-afa9-4df5-aea7-8a0d7d47a573","Name":"Sparren Golfklubb","MapLat":"59.702528413603986","MapLng":"18.335568085312843","GreenOpenType":1},{"GUID":"486dddf2-9020-48d8-a691-6a97de5b22fe","RegionGUID":"27b4c76b-4980-4ebe-9fbc-95133d05d777","Name":"Stenungsund Golfklubb","MapLat":"58.0262807","MapLng":"11.8695806","GreenOpenType":1},{"GUID":"84d0f620-00f4-4be6-8a5c-dd9efa08cd56","RegionGUID":"e0ad8cfd-8269-405c-a18e-082a4025da21","Name":"Stjernfors Nya GK ","MapLat":"59.8319087","MapLng":"15.0061502","GreenOpenType":1},{"GUID":"e060024b-5701-44df-9728-03d6c4f153eb","RegionGUID":"b9984d7d-2dc1-40e7-9f3b-dc5b63108a73","Name":"Stockholms GDF (Payex)","MapLat":null,"MapLng":null,"GreenOpenType":-1},{"GUID":"e856dbe2-cb5d-4db4-9604-4dcb776fdff0","RegionGUID":"b9984d7d-2dc1-40e7-9f3b-dc5b63108a73","Name":"Stockholms Golfklubb","MapLat":"59.394048559802705","MapLng":"18.030045802902243","GreenOpenType":1},{"GUID":"e09d74fe-b2cd-4659-9571-9eb89299c7a8","RegionGUID":"534d22b7-4904-472a-b5db-e7da7e8f41ba","Name":"Stora Lundby Golfklubb","MapLat":"57.8351422","MapLng":"12.2581846","GreenOpenType":1},{"GUID":"a137a5ee-0da9-417c-93f0-5ddf80ffa2f3","RegionGUID":"a896b971-2411-49b3-9524-c5f88ce038ae","Name":"Storsjöbygdens Golfklubb","MapLat":"62.96813549118026","MapLng":"14.798504258740225","GreenOpenType":1},{"GUID":"1bda8348-e6d5-4b15-a468-5d5dc3bd8685","RegionGUID":"555162c8-f1a6-477d-9a3f-a89378fcda21","Name":"Strands Golfklubb","MapLat":"59.389295206163865","MapLng":"16.796383142578104","GreenOpenType":1},{"GUID":"4aa230bb-644c-46d6-8d75-efaf6aed36c6","RegionGUID":"0023d53d-b3ce-458b-a88b-5baf111ec7cd","Name":"Strandtorps Golfklubb","MapLat":"56.644252179048976","MapLng":"12.896493081274402","GreenOpenType":1},{"GUID":"a65f1359-a126-4784-b32a-74f91d0c230a","RegionGUID":"555162c8-f1a6-477d-9a3f-a89378fcda21","Name":"Strängnäs Golfklubb","MapLat":"59.350859933877","MapLng":"17.021634433374032","GreenOpenType":1},{"GUID":"5e8fb3a4-68e0-41b8-97c2-fe36082e1f8d","RegionGUID":"c677a7df-445e-4740-a88c-de3d818b577f","Name":"Strömsholms Golfklubb","MapLat":"59.5450850","MapLng":"16.2457482","GreenOpenType":1},{"GUID":"c1c2e554-ea63-4b39-beeb-f6bb141ee959","RegionGUID":"27b4c76b-4980-4ebe-9fbc-95133d05d777","Name":"Strömstads Golfklubb","MapLat":"58.9491913","MapLng":"11.1546544","GreenOpenType":2},{"GUID":"5364f907-1be3-443f-9851-5fdb246bb1eb","RegionGUID":"a896b971-2411-49b3-9524-c5f88ce038ae","Name":"Strömsunds Golfklubb","MapLat":"63.8500000","MapLng":"15.5833333","GreenOpenType":1},{"GUID":"379e30e5-0694-4f25-9369-d5089d38228e","RegionGUID":"555162c8-f1a6-477d-9a3f-a89378fcda21","Name":"Sundbyvik Golfklubb","MapLat":"59.4484811","MapLng":"16.3492793","GreenOpenType":1},{"GUID":"4c1645a2-fafd-4b74-85c5-f625b603d433","RegionGUID":"8d855241-afa9-4df5-aea7-8a0d7d47a573","Name":"Sundsta Golf Norrtälje","MapLat":"59.7533","MapLng":"18.5700","GreenOpenType":1},{"GUID":"f02806d1-f6c3-452c-82f0-b905770d6976","RegionGUID":"904fe11a-03c0-4a4d-b8ac-8b0694b01ed3","Name":"Sundsvalls Golfklubb","MapLat":"62.2846757","MapLng":"17.3883882","GreenOpenType":1},{"GUID":"043c7d59-fef3-4d05-bf42-d06490736c12","RegionGUID":"021a3c4d-08b2-4575-9c52-0b9f326b4167","Name":"Sunne Golfklubb","MapLat":"59.809170964402796","MapLng":"13.129385088330062","GreenOpenType":1},{"GUID":"dd8c7d15-f9ce-43aa-b2cf-ffacd62ae156","RegionGUID":"c677a7df-445e-4740-a88c-de3d818b577f","Name":"Surahammars Golfklubb","MapLat":"59.7256658","MapLng":"16.2365951","GreenOpenType":1},{"GUID":"9c1dbbf4-e42f-4bee-a91e-e38810877d75","RegionGUID":"a896b971-2411-49b3-9524-c5f88ce038ae","Name":"Svegs Golfklubb","MapLat":"62.02311793865022","MapLng":"14.459283900305184","GreenOpenType":1},{"GUID":"e653db94-1038-4bc7-b901-9674cab40ae8","RegionGUID":"71034d1a-4ece-4696-a164-0c39e7d52241","Name":"Sälenfjällens Golfklubb","MapLat":"61.14513","MapLng":"13.29516","GreenOpenType":1},{"GUID":"3aff8620-c04a-4bb6-bd61-ac9b6a152e16","RegionGUID":"534d22b7-4904-472a-b5db-e7da7e8f41ba","Name":"Särö Golf Club","MapLat":"57.50565","MapLng":"11.950302","GreenOpenType":2},{"GUID":"0c10abf0-e34c-4deb-bf88-65cc8eb7c22e","RegionGUID":"71034d1a-4ece-4696-a164-0c39e7d52241","Name":"Säters Golfklubb","MapLat":"60.338151374236155","MapLng":"15.705625534057601","GreenOpenType":1},{"GUID":"d1b95806-cad3-48e4-bf54-c52e3d1ffee7","RegionGUID":"11502f51-c4c7-425c-a861-987ace64ea8b","Name":"Söderhamns Golfklubb","MapLat":"61.2930216","MapLng":"17.1620057","GreenOpenType":1},{"GUID":"8c4f72e9-e413-4dd6-ba4a-b9cb9dd03ae1","RegionGUID":"582bbfae-70b9-46ff-aed4-777c67926a3e","Name":"Söderslätts Golfklubb","MapLat":"55.4675568","MapLng":"13.0809497","GreenOpenType":1},{"GUID":"afde6aea-43ee-4267-9e81-db9a60b1bf5b","RegionGUID":"555162c8-f1a6-477d-9a3f-a89378fcda21","Name":"Södertälje Park Golfklubb","MapLat":"59.18985799692385","MapLng":"17.56432149904786","GreenOpenType":1},{"GUID":"97cf9a01-841d-4bfa-a14f-db060c1ea8f3","RegionGUID":"582bbfae-70b9-46ff-aed4-777c67926a3e","Name":"Söderåsens Golfklubb","MapLat":"56.0490306","MapLng":"12.9531544","GreenOpenType":1},{"GUID":"34423090-97ae-4ad4-9022-10fb31c4d9a0","RegionGUID":"941574a5-3109-455b-90f8-ee3eede5dd85","Name":"Sölvesborgs Golfklubb","MapLat":"56.0438146","MapLng":"14.6080370","GreenOpenType":1},{"GUID":"577bd29f-bab5-4e35-a8e1-2f96b7bd9bd8","RegionGUID":"582bbfae-70b9-46ff-aed4-777c67926a3e","Name":"Sönnertorps Golfklubb","MapLat":"56.4229018","MapLng":"12.7721091","GreenOpenType":1},{"GUID":"22c55abe-ac3e-4ce6-aed7-ca2a8074648a","RegionGUID":"11502f51-c4c7-425c-a861-987ace64ea8b","Name":"Sörfjärdens Golfklubb","MapLat":"62.02308390558561","MapLng":"17.40636553493652","GreenOpenType":0},{"GUID":"536034c8-8ac8-4ece-8187-4ae4d2fdb9e7","RegionGUID":"582bbfae-70b9-46ff-aed4-777c67926a3e","Name":"Tegelberga Golfklubb","MapLat":"55.45902","MapLng":"13.23366","GreenOpenType":1},{"GUID":"c3c79da7-974c-4716-967f-e31d0ebe34f6","RegionGUID":"904fe11a-03c0-4a4d-b8ac-8b0694b01ed3","Name":"Timrå Golfklubb","MapLat":"62.5076034","MapLng":"17.4161439","GreenOpenType":1},{"GUID":"23ab6141-6148-441e-bf40-4c3740931200","RegionGUID":"b9984d7d-2dc1-40e7-9f3b-dc5b63108a73","Name":"Tjusta Golf","MapLat":null,"MapLng":null,"GreenOpenType":1},{"GUID":"7fd225a6-7657-4c13-bd38-ff21a9ab184a","RegionGUID":"27b4c76b-4980-4ebe-9fbc-95133d05d777","Name":"Tjörns Golfklubb","MapLat":"58.0255206","MapLng":"11.6631203","GreenOpenType":1},{"GUID":"65d068ab-c15a-4d79-841b-2c760b37ac41","RegionGUID":"6a24ca2d-997d-4ee4-bd61-ce27ed2c0866","Name":"Tobo Golfklubb","MapLat":"57.57678360887919","MapLng":"15.808446847996528","GreenOpenType":1},{"GUID":"4b3e3a25-6ff6-4050-81c3-5003a642bf5b","RegionGUID":"582bbfae-70b9-46ff-aed4-777c67926a3e","Name":"Tomelilla Golfklubb","MapLat":"55.5297130","MapLng":"13.9815240","GreenOpenType":1},{"GUID":"ab7a0f5d-8e5b-48dd-9583-f0a0c2359479","RegionGUID":"582bbfae-70b9-46ff-aed4-777c67926a3e","Name":"Torekovs Golfklubb","MapLat":"56.438319824824184","MapLng":"12.646715039550802","GreenOpenType":1},{"GUID":"9883522c-cf38-4d8a-94b7-239f4393b0d3","RegionGUID":"27b4c76b-4980-4ebe-9fbc-95133d05d777","Name":"Torreby Golfklubb","MapLat":"58.43909440800548","MapLng":"11.59674400793457","GreenOpenType":1},{"GUID":"0b9b2a7e-2062-4984-bfe1-5f4c2e3ddb4c","RegionGUID":"534d22b7-4904-472a-b5db-e7da7e8f41ba","Name":"Torrekulla Golfklubb","MapLat":"57.6193690","MapLng":"12.0238990","GreenOpenType":1},{"GUID":"9213db5d-3397-45d1-b73d-e8811d00d751","RegionGUID":"021a3c4d-08b2-4575-9c52-0b9f326b4167","Name":"Torsby Golfklubb","MapLat":"60.1393245","MapLng":"13.0348593","GreenOpenType":1},{"GUID":"bdfa924c-650e-473f-a2c8-3a225798b0b3","RegionGUID":"555162c8-f1a6-477d-9a3f-a89378fcda21","Name":"Torshälla Golfklubb","MapLat":"59.41249316440706","MapLng":"16.45065356289062","GreenOpenType":1},{"GUID":"5d5260f9-f62b-4845-9274-690db43802ac","RegionGUID":"534d22b7-4904-472a-b5db-e7da7e8f41ba","Name":"Torslanda Golfklubb","MapLat":"57.702857","MapLng":"11.778781","GreenOpenType":1},{"GUID":"b2b94a32-c8fa-490c-a11c-4e7da722ca0c","RegionGUID":"c677a7df-445e-4740-a88c-de3d818b577f","Name":"Tortuna Golfklubb","MapLat":"59.66642273993137","MapLng":"16.72419791271974","GreenOpenType":1},{"GUID":"c567c686-ada5-4619-a6d4-22de3eec2716","RegionGUID":"6a24ca2d-997d-4ee4-bd61-ce27ed2c0866","Name":"Tranås Golfklubb","MapLat":"58.051073705629996","MapLng":"15.003322939917014","GreenOpenType":1},{"GUID":"b140b5ca-49c6-4f39-a4ac-429ff822dd41","RegionGUID":"582bbfae-70b9-46ff-aed4-777c67926a3e","Name":"Trelleborgs Golfklubb","MapLat":"55.37272757783532","MapLng":"13.087450176904278","GreenOpenType":1},{"GUID":"ce1b6c56-d2fd-4ab0-8cc0-7919eabc7e98","RegionGUID":"555162c8-f1a6-477d-9a3f-a89378fcda21","Name":"Trosa Golfklubb","MapLat":"58.87480887946279","MapLng":"17.54768257141112","GreenOpenType":1},{"GUID":"13794bff-9231-4dd9-bea0-283076683c0e","RegionGUID":"b9984d7d-2dc1-40e7-9f3b-dc5b63108a73","Name":"Troxhammar Golfklubb","MapLat":"59.3145855","MapLng":"17.7663363","GreenOpenType":1},{"GUID":"f8fcf145-0c41-4094-b275-678119de5c85","RegionGUID":"941574a5-3109-455b-90f8-ee3eede5dd85","Name":"Trummenäs Golfklubb","MapLat":"56.1645","MapLng":"15.7349","GreenOpenType":2},{"GUID":"568fe266-3f05-4405-8078-e914f431105e","RegionGUID":"ae8331f0-bbf2-48c6-8dc0-cd6144da70dc","Name":"Tureholms Nya Golfklubb","MapLat":"66.39074","MapLng":"23.608847","GreenOpenType":-1},{"GUID":"380b6355-8cee-4042-a9da-6430f0401153","RegionGUID":"b9984d7d-2dc1-40e7-9f3b-dc5b63108a73","Name":"Tyresö Golf","MapLat":"59.25028328597578","MapLng":"18.234753307067873","GreenOpenType":1},{"GUID":"b7cd9567-a6c4-44c2-8747-bd3caba0b3a1","RegionGUID":"b9984d7d-2dc1-40e7-9f3b-dc5b63108a73","Name":"Täby Golfklubb","MapLat":"59.500466","MapLng":"18.012235","GreenOpenType":1},{"GUID":"c378ede4-8d7a-4678-9854-28494d3f484c","RegionGUID":"71034d1a-4ece-4696-a164-0c39e7d52241","Name":"Tällbergsbyarnas Golfklubb","MapLat":"60.8138010","MapLng":"15.0235820","GreenOpenType":1},{"GUID":"418a9b19-c360-40d0-ad1a-601d90786ee6","RegionGUID":"0023d53d-b3ce-458b-a88b-5baf111ec7cd","Name":"Tönnersjö Golfklubb","MapLat":"56.61139865499841","MapLng":"13.03547400036622","GreenOpenType":1},{"GUID":"ec709808-47fb-4407-b5cd-84a5b028132b","RegionGUID":"52f851b7-0891-43e2-9e1a-3b347514159e","Name":"Töreboda Golfklubb","MapLat":"58.70351625944232","MapLng":"14.230150316601584","GreenOpenType":1},{"GUID":"2b74f1e5-938e-449a-bb78-850292ee3894","RegionGUID":"021a3c4d-08b2-4575-9c52-0b9f326b4167","Name":"Uddeholms Golfklubb","MapLat":"59.98990825016777","MapLng":"13.608297771533211","GreenOpenType":1},{"GUID":"ef1ef8fc-50d1-4e74-84a9-d7a15ff6471a","RegionGUID":"27b4c76b-4980-4ebe-9fbc-95133d05d777","Name":"Uddevalla Golfklubb","MapLat":"58.368225","MapLng":"11.769498","GreenOpenType":2},{"GUID":"2fff0f95-432d-441a-8fd7-7358d0dedcee","RegionGUID":"0023d53d-b3ce-458b-a88b-5baf111ec7cd","Name":"Ullared Flädje Golfklubb","MapLat":"56.9959188","MapLng":"12.6330539","GreenOpenType":1},{"GUID":"b4915992-be84-4c93-8ff0-0959bb279c98","RegionGUID":"b9984d7d-2dc1-40e7-9f3b-dc5b63108a73","Name":"Ullna Golf Club","MapLat":"59.4953565460976","MapLng":"18.152043281640644","GreenOpenType":1},{"GUID":"4b882fce-cb10-40ac-b46a-85d41b3c5af8","RegionGUID":"52f851b7-0891-43e2-9e1a-3b347514159e","Name":"Ulricehamns Golfklubb","MapLat":"57.789601","MapLng":"13.445018","GreenOpenType":1},{"GUID":"f4a21cd1-08f2-4d8c-acbe-033ee351a086","RegionGUID":"b9984d7d-2dc1-40e7-9f3b-dc5b63108a73","Name":"Ulriksdals Golfklubb","MapLat":"59.3866865427074","MapLng":"17.998446801818865","GreenOpenType":1},{"GUID":"8c3c70f6-a80d-4305-a371-3ce15c378d0d","RegionGUID":"ae8331f0-bbf2-48c6-8dc0-cd6144da70dc","Name":"Umeå Golfklubb","MapLat":"63.7157497","MapLng":"20.3996743","GreenOpenType":1},{"GUID":"f2a83327-a275-4067-8981-c0b16a14eb51","RegionGUID":"ae8331f0-bbf2-48c6-8dc0-cd6144da70dc","Name":"Umeå Sörfors Golfklubb","MapLat":"63.85503","MapLng":"20.02134","GreenOpenType":1},{"GUID":"ac9046a9-1675-4dc0-8534-fec4e73148ca","RegionGUID":"6a24ca2d-997d-4ee4-bd61-ce27ed2c0866","Name":"Uppvidinge Golfklubb","MapLat":"57.14541226283804","MapLng":"15.160948497924798","GreenOpenType":1},{"GUID":"8d8b8669-6c94-49d6-9eb9-e18808f25917","RegionGUID":"8d855241-afa9-4df5-aea7-8a0d7d47a573","Name":"Upsala Golfklubb","MapLat":"59.84173293397497","MapLng":"17.504601723669413","GreenOpenType":1},{"GUID":"e46854ec-5a18-421d-8a97-7cc5ae9fd7a6","RegionGUID":"27d0c2e5-3ca5-4f10-be47-860547b99396","Name":"Vadstena Golfklubb","MapLat":"58.42016694742294","MapLng":"14.897940063476574","GreenOpenType":1},{"GUID":"f5cf10e3-7ad5-42b4-8819-203970c5f864","RegionGUID":"27d0c2e5-3ca5-4f10-be47-860547b99396","Name":"Waldemarsviks Golfbana","MapLat":"58.1846010","MapLng":"16.7567729","GreenOpenType":1},{"GUID":"23aede8b-f55c-4706-8289-7b94d3212704","RegionGUID":"534d22b7-4904-472a-b5db-e7da7e8f41ba","Name":"Vallda Golf & Country Club","MapLat":"57.471428","MapLng":"12.009602","GreenOpenType":1},{"GUID":"ccf6b558-92cf-4e64-bc11-4ab9ff79541a","RegionGUID":"b9984d7d-2dc1-40e7-9f3b-dc5b63108a73","Name":"Vallentuna Golfklubb","MapLat":"59.561370949359215","MapLng":"18.10732841970215","GreenOpenType":1},{"GUID":"2a4d134d-2aad-4ae6-b24b-ef7473f4b557","RegionGUID":"582bbfae-70b9-46ff-aed4-777c67926a3e","Name":"Vallgårdens Golfklubb Åkarp","MapLat":"55.6509167","MapLng":"13.1286944","GreenOpenType":1},{"GUID":"ceda30cf-309d-418e-b329-82a167a661ab","RegionGUID":"52f851b7-0891-43e2-9e1a-3b347514159e","Name":"Vara-Bjertorp Golfklubb","MapLat":"58.25749446219569","MapLng":"13.118369999072268","GreenOpenType":1},{"GUID":"b9b99a98-b5cb-42c3-adc7-40a940e1b282","RegionGUID":"0023d53d-b3ce-458b-a88b-5baf111ec7cd","Name":"Varbergs Golfklubb","MapLat":"57.064468","MapLng":"12.352880","GreenOpenType":1},{"GUID":"f2cb0f19-558d-4029-8dc6-0d3340c6eb1a","RegionGUID":"582bbfae-70b9-46ff-aed4-777c67926a3e","Name":"Vasatorps Golfklubb","MapLat":"56.05690184929691","MapLng":"12.791339398974628","GreenOpenType":1},{"GUID":"b439d961-4cc7-428e-9ccf-5cfac0b90874","RegionGUID":"8d855241-afa9-4df5-aea7-8a0d7d47a573","Name":"Vassunda Golfklubb","MapLat":"59.688515175372686","MapLng":"17.700984731005867","GreenOpenType":1},{"GUID":"18bc2de6-f0fe-4a12-9306-5becbdb7ab17","RegionGUID":"8d855241-afa9-4df5-aea7-8a0d7d47a573","Name":"Wattholma Golfklubb","MapLat":"60.03100962585652","MapLng":"17.734014838623043","GreenOpenType":1},{"GUID":"5b36787a-878a-4534-924a-76dcf6090a8f","RegionGUID":"b9984d7d-2dc1-40e7-9f3b-dc5b63108a73","Name":"Waxholms Golfklubb","MapLat":"59.3927923","MapLng":"18.2731166","GreenOpenType":1},{"GUID":"c74e3d49-144e-4640-968a-babc345476a6","RegionGUID":"d7bfa18e-2f1d-4bdf-86e4-39f2fe75183a","Name":"Veckefjärdens Golf Club","MapLat":"63.2886049","MapLng":"18.6782940","GreenOpenType":1},{"GUID":"430808bb-7fdd-4227-a7e3-1b800f176643","RegionGUID":"582bbfae-70b9-46ff-aed4-777c67926a3e","Name":"Vellinge Golfklubb","MapLat":"55.4929881","MapLng":"13.1029510","GreenOpenType":1},{"GUID":"92413fce-5740-4f5b-b3c4-895c006c49e2","RegionGUID":"b9984d7d-2dc1-40e7-9f3b-dc5b63108a73","Name":"Wermdö Golf & Country Club","MapLat":"59.3048252","MapLng":"18.4603535","GreenOpenType":1},{"GUID":"000e21d0-efc2-4082-b0ff-31c7c5e481bb","RegionGUID":"6a24ca2d-997d-4ee4-bd61-ce27ed2c0866","Name":"Vetlanda Golfklubb","MapLat":"57.409831","MapLng":"15.046678","GreenOpenType":1},{"GUID":"806e30c7-43b4-421c-af9d-17ccd1d805c5","RegionGUID":"555162c8-f1a6-477d-9a3f-a89378fcda21","Name":"Vidbynäs Golf","MapLat":"59.201908016652844","MapLng":"17.440628908520527","GreenOpenType":1},{"GUID":"9dd4f195-e13d-4472-93ae-878f023c5327","RegionGUID":"555162c8-f1a6-477d-9a3f-a89378fcda21","Name":"Viksbergs Golfklubb","MapLat":"59.2458386","MapLng":"17.6326488","GreenOpenType":1},{"GUID":"2ebce8b9-c5ad-4985-9f86-e7efa1cdf744","RegionGUID":"b9984d7d-2dc1-40e7-9f3b-dc5b63108a73","Name":"Viksjö Golfklubb","MapLat":"59.402435","MapLng":"17.813677","GreenOpenType":2},{"GUID":"04a54bb0-c965-4aa8-970b-d1291ddeede4","RegionGUID":"6a24ca2d-997d-4ee4-bd61-ce27ed2c0866","Name":"Vimmerby Golfklubb","MapLat":"57.6756537","MapLng":"15.8910170","GreenOpenType":1},{"GUID":"b0c9d9f1-024a-404d-bb8d-bea538bb2a65","RegionGUID":"0023d53d-b3ce-458b-a88b-5baf111ec7cd","Name":"Vinbergs Golfklubb","MapLat":"56.961234255318196","MapLng":"12.554513158691408","GreenOpenType":1},{"GUID":"740362c7-49a4-435b-b81c-3b39e5dce9b2","RegionGUID":"555162c8-f1a6-477d-9a3f-a89378fcda21","Name":"Vingåkers Golfklubb","MapLat":"59.061941","MapLng":"15.917773","GreenOpenType":1},{"GUID":"c27efa89-bd02-434d-b6ad-d7ccb9c479ab","RegionGUID":"6a24ca2d-997d-4ee4-bd61-ce27ed2c0866","Name":"Wiredaholm Golf & Konferens","MapLat":"57.915469","MapLng":"14.644003","GreenOpenType":1},{"GUID":"e16dee44-22b4-4873-82e0-022deb28f6f9","RegionGUID":"5becf3a2-6a0c-442f-9bae-db8aea6e320d","Name":"Visby Golfklubb","MapLat":"57.4475099514978","MapLng":"18.12951728203127","GreenOpenType":1},{"GUID":"182503c0-5b3a-448c-84d4-119708e6ec09","RegionGUID":"6a24ca2d-997d-4ee4-bd61-ce27ed2c0866","Name":"Visingsö Golfklubb","MapLat":"58.0480034","MapLng":"14.3488758","GreenOpenType":1},{"GUID":"0bfdb0f9-d311-48bf-b6ab-63ceeb80f524","RegionGUID":"582bbfae-70b9-46ff-aed4-777c67926a3e","Name":"Wittsjö Golfklubb","MapLat":"56.3465435","MapLng":"13.7072590","GreenOpenType":1},{"GUID":"891adaa5-8327-486f-b1ac-b24b18b36714","RegionGUID":"582bbfae-70b9-46ff-aed4-777c67926a3e","Name":"Woodlands Golf & Country Club","MapLat":"56.2362698","MapLng":"13.1796034","GreenOpenType":1},{"GUID":"dc005327-c4a4-46fb-a988-2b0df95a96da","RegionGUID":"534d22b7-4904-472a-b5db-e7da7e8f41ba","Name":"World of Golf City Club","MapLat":null,"MapLng":null,"GreenOpenType":-1},{"GUID":"5981b844-8456-405c-8352-9d6284e19601","RegionGUID":"27d0c2e5-3ca5-4f10-be47-860547b99396","Name":"Vreta Kloster Golfklubb","MapLat":"58.527978","MapLng":"15.519393","GreenOpenType":1},{"GUID":"0bbfe2a4-6d27-40f6-b263-635a9f066199","RegionGUID":"27d0c2e5-3ca5-4f10-be47-860547b99396","Name":"Vårdsbergs Golfklubb","MapLat":"58.4120791","MapLng":"15.7508246","GreenOpenType":1},{"GUID":"c911e323-3060-4379-8573-ce4685f72977","RegionGUID":"52f851b7-0891-43e2-9e1a-3b347514159e","Name":"Vårgårda Golfklubb","MapLat":"58.0300768","MapLng":"12.8570557","GreenOpenType":1},{"GUID":"306f3c4c-bc64-463d-afb0-8eda24d4e0d6","RegionGUID":"8d855241-afa9-4df5-aea7-8a0d7d47a573","Name":"Väddö Golfklubb","MapLat":"59.95837881954964","MapLng":"18.831618052099603","GreenOpenType":1},{"GUID":"a00abdcd-c462-443e-8794-89f4cb48c2ab","RegionGUID":"6a24ca2d-997d-4ee4-bd61-ce27ed2c0866","Name":"Värnamo Golfklubb","MapLat":"57.225629","MapLng":"14.146717","GreenOpenType":1},{"GUID":"8d942e10-e08f-4449-87e6-eb29b44a0d35","RegionGUID":"582bbfae-70b9-46ff-aed4-777c67926a3e","Name":"Värpinge Golfklubb","MapLat":"55.7070248","MapLng":"13.1492107","GreenOpenType":1},{"GUID":"19736ef1-13b4-460d-9904-a2d900f80214","RegionGUID":"b9984d7d-2dc1-40e7-9f3b-dc5b63108a73","Name":"Wäsby Golfklubb","MapLat":"59.53738577890619","MapLng":"17.958895398730462","GreenOpenType":1},{"GUID":"3e1e2811-da4a-4471-859f-c4f128112d44","RegionGUID":"6a24ca2d-997d-4ee4-bd61-ce27ed2c0866","Name":"Västerviks Golfklubb","MapLat":"57.77179446578393","MapLng":"16.652731035595714","GreenOpenType":1},{"GUID":"db5b9902-8a0f-446f-92e3-1ef3d070c9a7","RegionGUID":"c677a7df-445e-4740-a88c-de3d818b577f","Name":"Västerås Golfklubb","MapLat":"59.62904735413894","MapLng":"16.503627823339837","GreenOpenType":1},{"GUID":"e832ad86-8ae0-431a-823c-a6ae85e35aea","RegionGUID":"6a24ca2d-997d-4ee4-bd61-ce27ed2c0866","Name":"Växjö Golfklubb","MapLat":"56.9048580","MapLng":"14.7710930","GreenOpenType":1},{"GUID":"83b852d4-d554-4e19-8f1c-4d276ab16d88","RegionGUID":"582bbfae-70b9-46ff-aed4-777c67926a3e","Name":"Ystad Golfklubb","MapLat":"55.4353634","MapLng":"13.9265010","GreenOpenType":1},{"GUID":"e068c490-6342-4ae3-b9d2-9d23af5d4ea3","RegionGUID":"555162c8-f1a6-477d-9a3f-a89378fcda21","Name":"Åda Golf & Country Club","MapLat":"58.928761990699485","MapLng":"17.530988829705812","GreenOpenType":1},{"GUID":"4b661694-a40d-49aa-b7e6-e56cfa789fe2","RegionGUID":"b9984d7d-2dc1-40e7-9f3b-dc5b63108a73","Name":"Ågesta Golfklubb","MapLat":"59.2233502","MapLng":"18.0825720","GreenOpenType":1},{"GUID":"1b20126a-8e52-4d2f-86a9-a87c7a622992","RegionGUID":"582bbfae-70b9-46ff-aed4-777c67926a3e","Name":"Åkagårdens Golfklubb","MapLat":"56.36534064124448","MapLng":"12.793639592065426","GreenOpenType":1},{"GUID":"4b03e890-e748-48ac-a9c8-b6ef6bb43e82","RegionGUID":"b9984d7d-2dc1-40e7-9f3b-dc5b63108a73","Name":"Åkersberga Golfklubb","MapLat":"59.512475738652455","MapLng":"18.290326595306396","GreenOpenType":1},{"GUID":"17825a76-1a16-42af-a414-fe253442b35e","RegionGUID":"a896b971-2411-49b3-9524-c5f88ce038ae","Name":"Åre Golfklubb","MapLat":"63.405000077371824","MapLng":"12.812465192431656","GreenOpenType":1},{"GUID":"eb00b76a-a18c-46ac-b684-0d39488fd67d","RegionGUID":"021a3c4d-08b2-4575-9c52-0b9f326b4167","Name":"Årjängs Golfklubb","MapLat":"59.32883231924854","MapLng":"12.296664890087884","GreenOpenType":1},{"GUID":"d911988e-bc43-4d8d-bd4c-0474cffe3e80","RegionGUID":"ae8331f0-bbf2-48c6-8dc0-cd6144da70dc","Name":"Åsele Nya Golfklubb","MapLat":"64.15945","MapLng":"17.28022","GreenOpenType":1},{"GUID":"57d4a7c5-2f6d-45ad-903c-456a18317021","RegionGUID":"52f851b7-0891-43e2-9e1a-3b347514159e","Name":"Åsundsholms Golfklubb","MapLat":"57.66797334842684","MapLng":"13.327705682714841","GreenOpenType":1},{"GUID":"b31d9ba9-23fa-43db-a8f6-a0aec29b3f5c","RegionGUID":"27d0c2e5-3ca5-4f10-be47-860547b99396","Name":"Åtvidabergs Golfklubb","MapLat":"58.19466385864334","MapLng":"15.982537922119153","GreenOpenType":1},{"GUID":"5b5f6624-233c-437d-a1e7-462321bd7116","RegionGUID":"6a24ca2d-997d-4ee4-bd61-ce27ed2c0866","Name":"Älmhults Golfklubb","MapLat":"56.563142","MapLng":"14.171473","GreenOpenType":0},{"GUID":"b5e4620c-57b4-49b5-9299-3aa9e2f169b2","RegionGUID":"71034d1a-4ece-4696-a164-0c39e7d52241","Name":"Älvdalens Golfklubb","MapLat":"61.2485235347421","MapLng":"14.05775186205446","GreenOpenType":-1},{"GUID":"b2b5d33f-9d34-4287-bcc2-1f9baddd9317","RegionGUID":"8d855241-afa9-4df5-aea7-8a0d7d47a573","Name":"Älvkarleby Golfklubb","MapLat":"60.5883830","MapLng":"17.4474464","GreenOpenType":1},{"GUID":"d1e83e27-37e1-4466-a1cf-b89b844963f0","RegionGUID":"582bbfae-70b9-46ff-aed4-777c67926a3e","Name":"Ängelholms Golfklubb","MapLat":"56.2665198","MapLng":"13.0114252","GreenOpenType":1},{"GUID":"a7bc4098-b309-4a8f-9db3-a3771029ac5d","RegionGUID":"c677a7df-445e-4740-a88c-de3d818b577f","Name":"Ängsö Golfklubb","MapLat":"59.5701405954949","MapLng":"16.867987154370113","GreenOpenType":1},{"GUID":"1873dd55-911e-4d9c-b402-44e07282a542","RegionGUID":"582bbfae-70b9-46ff-aed4-777c67926a3e","Name":"Äppelgårdens Golfklubb","MapLat":"56.42760107418319","MapLng":"12.925558140380854","GreenOpenType":1},{"GUID":"c440f406-3433-4e16-b0c2-23478f606640","RegionGUID":"534d22b7-4904-472a-b5db-e7da7e8f41ba","Name":"Öijared Golfklubb","MapLat":"57.85668198261536","MapLng":"12.396648919262677","GreenOpenType":1},{"GUID":"6c8bd2be-3df4-4b05-bd6d-7717d041508b","RegionGUID":"904fe11a-03c0-4a4d-b8ac-8b0694b01ed3","Name":"Öjestrand Golf Club","MapLat":"62.2447287","MapLng":"17.2947007","GreenOpenType":1},{"GUID":"70dcdaac-bc54-4f15-b966-2cb5f541ca27","RegionGUID":"6a24ca2d-997d-4ee4-bd61-ce27ed2c0866","Name":"Ölands Golfklubb","MapLat":"57.1400145","MapLng":"16.9652195","GreenOpenType":1},{"GUID":"f9bd0a26-4d65-4d94-b80a-231127e0268a","RegionGUID":"8d855241-afa9-4df5-aea7-8a0d7d47a573","Name":"Örbyhus Golfklubb","MapLat":"60.1968171","MapLng":"17.7043808","GreenOpenType":1},{"GUID":"fad31ab3-b076-4881-81b3-62ec12fed31d","RegionGUID":"e0ad8cfd-8269-405c-a18e-082a4025da21","Name":"Örebro City Golf & Country Club","MapLat":"59.2492924522435","MapLng":"15.212890149707041","GreenOpenType":1},{"GUID":"0da32b0f-1743-4ac2-8b97-69ab6976f2f8","RegionGUID":"8d855241-afa9-4df5-aea7-8a0d7d47a573","Name":"Öregrunds Golfklubb","MapLat":"60.27357678398567","MapLng":"18.40526377495119","GreenOpenType":1},{"GUID":"91360c50-3874-40c9-9f6f-0d6f24889c2d","RegionGUID":"582bbfae-70b9-46ff-aed4-777c67926a3e","Name":"Örestads Golfklubb","MapLat":"55.693709","MapLng":"13.063656","GreenOpenType":1},{"GUID":"3580f460-7801-4df2-ad4c-c5f7f251fc2e","RegionGUID":"582bbfae-70b9-46ff-aed4-777c67926a3e","Name":"Öresunds Golf ","MapLat":"55.853882","MapLng":"12.903240","GreenOpenType":1},{"GUID":"98ff406a-13d0-491c-b07f-ede69e662546","RegionGUID":"d7bfa18e-2f1d-4bdf-86e4-39f2fe75183a","Name":"Örnsköldsviks Golfklubb Puttom","MapLat":"63.3009785","MapLng":"18.9389138","GreenOpenType":1},{"GUID":"a70e7af3-641a-408e-980f-bb50e23a21ce","RegionGUID":"27d0c2e5-3ca5-4f10-be47-860547b99396","Name":"Östad Golf Väderstad","MapLat":"58.3114378","MapLng":"14.9017479","GreenOpenType":-1},{"GUID":"9f665773-cffe-43c2-9762-424c42a4dacf","RegionGUID":"582bbfae-70b9-46ff-aed4-777c67926a3e","Name":"Österlens Golfklubb","MapLat":"55.622615314878715","MapLng":"14.277262789160158","GreenOpenType":1},{"GUID":"82214e8d-3bf5-4a89-a156-c9000c91f50f","RegionGUID":"a896b971-2411-49b3-9524-c5f88ce038ae","Name":"Östersund-Frösö Golfklubb","MapLat":"63.18366","MapLng":"14.49650","GreenOpenType":1},{"GUID":"38d11c48-a5ab-4a33-b096-574262609e99","RegionGUID":"b9984d7d-2dc1-40e7-9f3b-dc5b63108a73","Name":"Österåkers Golfklubb","MapLat":"59.49127","MapLng":"18.254","GreenOpenType":1},{"GUID":"1275d329-1813-4549-ae2d-93e02cfcb3a3","RegionGUID":"582bbfae-70b9-46ff-aed4-777c67926a3e","Name":"Östra Göinge Golfklubb","MapLat":"56.203088","MapLng":"14.078765","GreenOpenType":1}]